{
"type": "FeatureCollection",
"name": "student_nutrition_sites",
"crs": { "type": "name", "properties": { "name": "urn:ogc:def:crs:OGC:1.3:CRS84" } },
"features": [
{ "type": "Feature", "properties": { "_id": 792, "name": "ACADÃ‰MIE ALEXANDRE-DUMAS - SNP", "type": "Student Nutrition Site", "address": "255 CORONATION DR, Rm-124" }, "geometry": { "type": "Point", "coordinates": [ -79.17977, 43.76243 ] } },
{ "type": "Feature", "properties": { "_id": 965, "name": "AFRICENTRIC ALTERNATIVE SCHOOL", "type": "Student Nutrition Site", "address": "1430 SHEPPARD AVE W" }, "geometry": { "type": "Point", "coordinates": [ -79.48826, 43.74543 ] } },
{ "type": "Feature", "properties": { "_id": 1270, "name": "ALBION BOYS & GIRLS CLUB", "type": "Student Nutrition Site", "address": "2533 KIPLING AVE, ROOM-225" }, "geometry": { "type": "Point", "coordinates": [ -79.58239, 43.74494 ] } },
{ "type": "Feature", "properties": { "_id": 1663, "name": "AMESBURY MIDDLE SCHOOL", "type": "Student Nutrition Site", "address": "201 GRACEFIELD AVE" }, "geometry": { "type": "Point", "coordinates": [ -79.49402, 43.70871 ] } },
{ "type": "Feature", "properties": { "_id": 1895, "name": "ANNUNCIATION CATHOLIC SCHOOL", "type": "Student Nutrition Site", "address": "65 AVONWICK GT, Rm-127" }, "geometry": { "type": "Point", "coordinates": [ -79.32127, 43.75336 ] } },
{ "type": "Feature", "properties": { "_id": 3098, "name": "BALA NUTRITION BREAKFAST", "type": "Student Nutrition Site", "address": "6 BALA AVE" }, "geometry": { "type": "Point", "coordinates": [ -79.49902, 43.68947 ] } },
{ "type": "Feature", "properties": { "_id": 3704, "name": "BAYCREST PUBLIC SCHOOL", "type": "Student Nutrition Site", "address": "50 AMEER AVE" }, "geometry": { "type": "Point", "coordinates": [ -79.44118, 43.72862 ] } },
{ "type": "Feature", "properties": { "_id": 3825, "name": "BEAUMONDE HEIGHTS JUNIOR SCHOOL", "type": "Student Nutrition Site", "address": "70 MONTERREY DR" }, "geometry": { "type": "Point", "coordinates": [ -79.57553, 43.74297 ] } },
{ "type": "Feature", "properties": { "_id": 4237, "name": "BEVERLEY HEIGHTS MIDDLE SCHOOL", "type": "Student Nutrition Site", "address": "26 TROUTBROOKE DR, Rm-113" }, "geometry": { "type": "Point", "coordinates": [ -79.50478, 43.73303 ] } },
{ "type": "Feature", "properties": { "_id": 4247, "name": "BEYOND 30:30", "type": "Student Nutrition Site", "address": "10 BELLAMY RD S" }, "geometry": { "type": "Point", "coordinates": [ -79.22561, 43.73266 ] } },
{ "type": "Feature", "properties": { "_id": 4248, "name": "BGCTK (TORONTO KIWANIS BOYS & GIRLS CLUB)", "type": "Student Nutrition Site", "address": "935 DUNDAS ST E, Rm-155" }, "geometry": { "type": "Point", "coordinates": [ -79.34869, 43.66209 ] } },
{ "type": "Feature", "properties": { "_id": 4524, "name": "BLAKE STREET JUNIOR PUBLIC SCHOOL", "type": "Student Nutrition Site", "address": "21 BOULTBEE AVE" }, "geometry": { "type": "Point", "coordinates": [ -79.33848, 43.67181 ] } },
{ "type": "Feature", "properties": { "_id": 4527, "name": "BLAYDON PUBLIC SCHOOL", "type": "Student Nutrition Site", "address": "25 BLAYDON AVE" }, "geometry": { "type": "Point", "coordinates": [ -79.48626, 43.73537 ] } },
{ "type": "Feature", "properties": { "_id": 4688, "name": "BLYTHWOOD PUBLIC SCHOOL", "type": "Student Nutrition Site", "address": "2 STRATHGOWAN CRES" }, "geometry": { "type": "Point", "coordinates": [ -79.38951, 43.71994 ] } },
{ "type": "Feature", "properties": { "_id": 5171, "name": "BRAEBURN JUNIOR SCHOOL STUDENT NUTRITION PROGRAM", "type": "Student Nutrition Site", "address": "15 TANDRIDGE CRES" }, "geometry": { "type": "Point", "coordinates": [ -79.54887, 43.72804 ] } },
{ "type": "Feature", "properties": { "_id": 5242, "name": "BREAKFAST CLUB", "type": "Student Nutrition Site", "address": "2180 ELLESMERE RD" }, "geometry": { "type": "Point", "coordinates": [ -79.23117, 43.77761 ] } },
{ "type": "Feature", "properties": { "_id": 5329, "name": "BROCK JUNIOR PUBLIC SCHOOL", "type": "Student Nutrition Site", "address": "93 MARGUERETTA ST" }, "geometry": { "type": "Point", "coordinates": [ -79.43785, 43.65306 ] } },
{ "type": "Feature", "properties": { "_id": 5336, "name": "BROOK'S BISTRO STUDENT NUTRITION PROGRAM", "type": "Student Nutrition Site", "address": "155 HILDA AVE" }, "geometry": { "type": "Point", "coordinates": [ -79.42625, 43.79356 ] } },
{ "type": "Feature", "properties": { "_id": 5341, "name": "BROOKHAVEN P.S.", "type": "Student Nutrition Site", "address": "70 BROOKHAVEN DR" }, "geometry": { "type": "Point", "coordinates": [ -79.4957, 43.70251 ] } },
{ "type": "Feature", "properties": { "_id": 5343, "name": "BROOKVIEW NUTRITION PROGRAM", "type": "Student Nutrition Site", "address": "4505 JANE ST" }, "geometry": { "type": "Point", "coordinates": [ -79.51725, 43.76747 ] } },
{ "type": "Feature", "properties": { "_id": 5375, "name": "BRUCE SCHOOL NUTRITION PROGRAM", "type": "Student Nutrition Site", "address": "51 LARCHMOUNT AVE" }, "geometry": { "type": "Point", "coordinates": [ -79.33334, 43.66104 ] } },
{ "type": "Feature", "properties": { "_id": 5684, "name": "BURNHAMTHORPE CI STUDENT NUTRITION PROGRAM", "type": "Student Nutrition Site", "address": "500 THE EAST MALL" }, "geometry": { "type": "Point", "coordinates": [ -79.56033, 43.64855 ] } },
{ "type": "Feature", "properties": { "_id": 6075, "name": "Boy's and Girl's Club After School", "type": "Student Nutrition Site", "address": "300 KANE AVE" }, "geometry": { "type": "Point", "coordinates": [ -79.46942, 43.68726 ] } },
{ "type": "Feature", "properties": { "_id": 6078, "name": "Braeburnwoods Kindergarten Before & After School Program", "type": "Student Nutrition Site", "address": "15 TANDRIDGE CRES" }, "geometry": { "type": "Point", "coordinates": [ -79.54887, 43.72804 ] } },
{ "type": "Feature", "properties": { "_id": 6089, "name": "Broadacres Junior School", "type": "Student Nutrition Site", "address": "45 CRENDON DR" }, "geometry": { "type": "Point", "coordinates": [ -79.57202, 43.64808 ] } },
{ "type": "Feature", "properties": { "_id": 6123, "name": "C R MARCHANT MIDDLE SCHOOL", "type": "Student Nutrition Site", "address": "1 RALPH ST" }, "geometry": { "type": "Point", "coordinates": [ -79.51294, 43.70173 ] } },
{ "type": "Feature", "properties": { "_id": 6148, "name": "C. E. WEBSTER", "type": "Student Nutrition Site", "address": "1900 KEELE ST" }, "geometry": { "type": "Point", "coordinates": [ -79.4751, 43.69344 ] } },
{ "type": "Feature", "properties": { "_id": 6500, "name": "CALICO BREAKFAST CLUB", "type": "Student Nutrition Site", "address": "35 CALICO DR" }, "geometry": { "type": "Point", "coordinates": [ -79.5036, 43.73791 ] } },
{ "type": "Feature", "properties": { "_id": 6823, "name": "CARDINAL CARTER ACADEMY FOR THE ARTS", "type": "Student Nutrition Site", "address": "36 GREENFIELD AVE" }, "geometry": { "type": "Point", "coordinates": [ -79.40976, 43.7641 ] } },
{ "type": "Feature", "properties": { "_id": 7024, "name": "CARLTON VILLAGE PUBLIC SCHOOL - SNP", "type": "Student Nutrition Site", "address": "315 OSLER ST, Unit-2" }, "geometry": { "type": "Point", "coordinates": [ -79.46003, 43.67236 ] } },
{ "type": "Feature", "properties": { "_id": 7188, "name": "CEDAR DRIVE SNACK PROGRAM", "type": "Student Nutrition Site", "address": "21 GATESVIEW AVE" }, "geometry": { "type": "Point", "coordinates": [ -79.21505, 43.74586 ] } },
{ "type": "Feature", "properties": { "_id": 7238, "name": "CENTRAL ETOBICOKE HIGH SCHOOL", "type": "Student Nutrition Site", "address": "10 DENFIELD ST" }, "geometry": { "type": "Point", "coordinates": [ -79.55549, 43.67902 ] } },
{ "type": "Feature", "properties": { "_id": 7360, "name": "CHALKFARM P.S.", "type": "Student Nutrition Site", "address": "100 CHALKFARM DR" }, "geometry": { "type": "Point", "coordinates": [ -79.5144, 43.72712 ] } },
{ "type": "Feature", "properties": { "_id": 7364, "name": "CHAMINADE COLLEGE SCHOOL", "type": "Student Nutrition Site", "address": "490 QUEENS DR" }, "geometry": { "type": "Point", "coordinates": [ -79.49606, 43.7101 ] } },
{ "type": "Feature", "properties": { "_id": 7430, "name": "CHARLES G. FRASER SCHOOL", "type": "Student Nutrition Site", "address": "79 MANNING AVE" }, "geometry": { "type": "Point", "coordinates": [ -79.40949, 43.64854 ] } },
{ "type": "Feature", "properties": { "_id": 7731, "name": "CHESTER LE JR. P.S. SNACK PROGRAM", "type": "Student Nutrition Site", "address": "201 CHESTER LE BLVD" }, "geometry": { "type": "Point", "coordinates": [ -79.3311, 43.7986 ] } },
{ "type": "Feature", "properties": { "_id": 8359, "name": "CHURCH ST SCHOOL NUTRITION PROGRAM", "type": "Student Nutrition Site", "address": "83 ALEXANDER ST" }, "geometry": { "type": "Point", "coordinates": [ -79.37918, 43.66362 ] } },
{ "type": "Feature", "properties": { "_id": 8719, "name": "CLAIREVILLE JUNIOR SCHOOL", "type": "Student Nutrition Site", "address": "350 SILVERSTONE DR" }, "geometry": { "type": "Point", "coordinates": [ -79.59823, 43.74785 ] } },
{ "type": "Feature", "properties": { "_id": 9279, "name": "CORDELLA JR. PUBLIC SCHOOL LUNCH PROGRAM", "type": "Student Nutrition Site", "address": "175 CORDELLA AVE" }, "geometry": { "type": "Point", "coordinates": [ -79.48759, 43.67908 ] } },
{ "type": "Feature", "properties": { "_id": 9291, "name": "CORNELL JUNIOR P.S.SNACK PROGRAM", "type": "Student Nutrition Site", "address": "61 HOLMFIRTH TER" }, "geometry": { "type": "Point", "coordinates": [ -79.21804, 43.7594 ] } },
{ "type": "Feature", "properties": { "_id": 9312, "name": "CORVETTE JR. PUBLIC SCHOOL MEAL PROGRAM", "type": "Student Nutrition Site", "address": "30 CORVETTE AVE" }, "geometry": { "type": "Point", "coordinates": [ -79.26216, 43.72649 ] } },
{ "type": "Feature", "properties": { "_id": 9730, "name": "Cedarbrook Public School", "type": "Student Nutrition Site", "address": "56 NELSON ST" }, "geometry": { "type": "Point", "coordinates": [ -79.2302, 43.7473 ] } },
{ "type": "Feature", "properties": { "_id": 9825, "name": "Clairlee Public School Snack Program", "type": "Student Nutrition Site", "address": "25 ROSALIND CRES" }, "geometry": { "type": "Point", "coordinates": [ -79.29619, 43.7166 ] } },
{ "type": "Feature", "properties": { "_id": 10235, "name": "DANTE ALIGHIERI ACADEMY CATHOLIC SECONDARY SCHOOL", "type": "Student Nutrition Site", "address": "2 ST ANDREWS BLVD" }, "geometry": { "type": "Point", "coordinates": [ -79.55006, 43.70167 ] } },
{ "type": "Feature", "properties": { "_id": 10383, "name": "DAVISVILLE PUBLIC SCHOOL", "type": "Student Nutrition Site", "address": "529 VAUGHAN RD" }, "geometry": { "type": "Point", "coordinates": [ -79.43671, 43.69103 ] } },
{ "type": "Feature", "properties": { "_id": 10396, "name": "DAYSTROM PUBLIC SCHOOL (SNACK PROGRAM)", "type": "Student Nutrition Site", "address": "25 DAYSTROM DR" }, "geometry": { "type": "Point", "coordinates": [ -79.54697, 43.74796 ] } },
{ "type": "Feature", "properties": { "_id": 10587, "name": "DENNIS AVENUE COMMUNITY SCHOOL", "type": "Student Nutrition Site", "address": "400 ROCKCLIFFE BLVD" }, "geometry": { "type": "Point", "coordinates": [ -79.48844, 43.67402 ] } },
{ "type": "Feature", "properties": { "_id": 10600, "name": "DERRYDOWN PUBLIC SCHOOL", "type": "Student Nutrition Site", "address": "120 DERRYDOWN RD" }, "geometry": { "type": "Point", "coordinates": [ -79.49371, 43.7587 ] } },
{ "type": "Feature", "properties": { "_id": 10601, "name": "DERRYDOWN SCHOOL AGE PROGRAM", "type": "Student Nutrition Site", "address": "120 DERRYDOWN RD" }, "geometry": { "type": "Point", "coordinates": [ -79.49371, 43.7587 ] } },
{ "type": "Feature", "properties": { "_id": 10652, "name": "DEWSON STREET JUNIOR PUBLIC SCHOOL", "type": "Student Nutrition Site", "address": "65 CONCORD AVE" }, "geometry": { "type": "Point", "coordinates": [ -79.42459, 43.65656 ] } },
{ "type": "Feature", "properties": { "_id": 10858, "name": "DIXON GROVE JUNIOR MIDDLE SCHOOL SCHOOL SNACK PROGRAM", "type": "Student Nutrition Site", "address": "315 THE WESTWAY" }, "geometry": { "type": "Point", "coordinates": [ -79.55654, 43.68528 ] } },
{ "type": "Feature", "properties": { "_id": 11164, "name": "DON MONTGOMERY COMMUNITY CENTRE - TEACHING KITCHEN", "type": "Student Nutrition Site", "address": "2467 EGLINTON AVE E" }, "geometry": { "type": "Point", "coordinates": [ -79.26167, 43.73267 ] } },
{ "type": "Feature", "properties": { "_id": 11231, "name": "DONWOOD PARK P.S.", "type": "Student Nutrition Site", "address": "61 DORCOT AVE" }, "geometry": { "type": "Point", "coordinates": [ -79.26237, 43.75699 ] } },
{ "type": "Feature", "properties": { "_id": 11286, "name": "DOVERCOURT PUBLIC SCHOOL", "type": "Student Nutrition Site", "address": "228 BARTLETT AVE" }, "geometry": { "type": "Point", "coordinates": [ -79.43578, 43.66674 ] } },
{ "type": "Feature", "properties": { "_id": 11544, "name": "DUKE OF CONNAUGHT SCHOOL", "type": "Student Nutrition Site", "address": "70 WOODFIELD RD" }, "geometry": { "type": "Point", "coordinates": [ -79.32205, 43.6664 ] } },
{ "type": "Feature", "properties": { "_id": 11598, "name": "DUNDAS PUBLIC SCHOOL", "type": "Student Nutrition Site", "address": "935 DUNDAS ST E" }, "geometry": { "type": "Point", "coordinates": [ -79.34869, 43.66209 ] } },
{ "type": "Feature", "properties": { "_id": 11840, "name": "EARL GREY SENIOR PUBLIC SCHOOL", "type": "Student Nutrition Site", "address": "100 STRATHCONA AVE" }, "geometry": { "type": "Point", "coordinates": [ -79.33993, 43.67681 ] } },
{ "type": "Feature", "properties": { "_id": 11844, "name": "EARL HAIG SECONDARY SCHOOL", "type": "Student Nutrition Site", "address": "100 PRINCESS AVE" }, "geometry": { "type": "Point", "coordinates": [ -79.40737, 43.76955 ] } },
{ "type": "Feature", "properties": { "_id": 11927, "name": "EASTDALE COLLEGIATE INSTITUTE", "type": "Student Nutrition Site", "address": "701 GERRARD ST E, Flr-2" }, "geometry": { "type": "Point", "coordinates": [ -79.34882, 43.66594 ] } },
{ "type": "Feature", "properties": { "_id": 11932, "name": "EASTVIEW JR. P.S. SNACK PROGRAM", "type": "Student Nutrition Site", "address": "20 WALDOCK ST" }, "geometry": { "type": "Point", "coordinates": [ -79.19134, 43.75907 ] } },
{ "type": "Feature", "properties": { "_id": 12051, "name": "ECOLE ELEMENTAIRE  CATHOLIQUE SAINT NOEL-CHABANEL", "type": "Student Nutrition Site", "address": "30 THISTLE DOWN BLVD, Bldg--" }, "geometry": { "type": "Point", "coordinates": [ -79.56076, 43.73678 ] } },
{ "type": "Feature", "properties": { "_id": 12052, "name": "ECOLE ELEMENTAIRE CATHOLIQUE DU SACRE-COEUR SNP", "type": "Student Nutrition Site", "address": "98 ESSEX ST" }, "geometry": { "type": "Point", "coordinates": [ -79.42414, 43.66788 ] } },
{ "type": "Feature", "properties": { "_id": 12054, "name": "ECOLE ELEMENTAIRE FELIX-LECLERC", "type": "Student Nutrition Site", "address": "50 CELESTINE DR" }, "geometry": { "type": "Point", "coordinates": [ -79.56145, 43.6897 ] } },
{ "type": "Feature", "properties": { "_id": 12055, "name": "ECOLE ELEMETAIRE MATHIEU-DA-COSTA", "type": "Student Nutrition Site", "address": "116 CORNELIUS PKWY" }, "geometry": { "type": "Point", "coordinates": [ -79.47554, 43.71784 ] } },
{ "type": "Feature", "properties": { "_id": 12058, "name": "ECOLE SECONDAIRE CATHOLIQUE SAINT-FRERE-ANDRE SNP", "type": "Student Nutrition Site", "address": "330 LANSDOWNE AVE" }, "geometry": { "type": "Point", "coordinates": [ -79.44124, 43.65239 ] } },
{ "type": "Feature", "properties": { "_id": 12423, "name": "ELIA JUNIOR MS STUDENT SNACK PROGRAM", "type": "Student Nutrition Site", "address": "215 SENTINEL RD" }, "geometry": { "type": "Point", "coordinates": [ -79.49846, 43.75381 ] } },
{ "type": "Feature", "properties": { "_id": 12454, "name": "ELMBANK JUNIOR MIDDLE SCHOOL (STUDENT NUTRITION)", "type": "Student Nutrition Site", "address": "10 PITTSBORO DR" }, "geometry": { "type": "Point", "coordinates": [ -79.59005, 43.73651 ] } },
{ "type": "Feature", "properties": { "_id": 12459, "name": "ELMLEA JUNIOR SCHOOL", "type": "Student Nutrition Site", "address": "50 HADRIAN DR" }, "geometry": { "type": "Point", "coordinates": [ -79.55058, 43.71564 ] } },
{ "type": "Feature", "properties": { "_id": 12470, "name": "EMERY COLLEGIATE ADULT LEARNING CENTRE", "type": "Student Nutrition Site", "address": "3395 WESTON RD, Bldg--" }, "geometry": { "type": "Point", "coordinates": [ -79.53956, 43.74873 ] } },
{ "type": "Feature", "properties": { "_id": 12471, "name": "EMERY COLLEGIATE INSTITUTE", "type": "Student Nutrition Site", "address": "3395 WESTON RD, Bldg--" }, "geometry": { "type": "Point", "coordinates": [ -79.53956, 43.74873 ] } },
{ "type": "Feature", "properties": { "_id": 12572, "name": "EPIPHANY OF OUR LORD CATHOLIC ACADEMY", "type": "Student Nutrition Site", "address": "3150 PHARMACY AVE" }, "geometry": { "type": "Point", "coordinates": [ -79.32894, 43.79897 ] } },
{ "type": "Feature", "properties": { "_id": 12596, "name": "ESC PÃˆRE-PHILIPPE-LAMARCHE - SNP", "type": "Student Nutrition Site", "address": "2850X EGLINTON AVE E" }, "geometry": { "type": "Point", "coordinates": [ -79.24028, 43.73865 ] } },
{ "type": "Feature", "properties": { "_id": 12621, "name": "ESSEX STREET SCHOOL", "type": "Student Nutrition Site", "address": "50 ESSEX ST" }, "geometry": { "type": "Point", "coordinates": [ -79.42227, 43.66826 ] } },
{ "type": "Feature", "properties": { "_id": 12710, "name": "ETOBICOKE SECONDARY", "type": "Student Nutrition Site", "address": "160 SILVERHILL DR" }, "geometry": { "type": "Point", "coordinates": [ -79.55128, 43.63387 ] } },
{ "type": "Feature", "properties": { "_id": 12952, "name": "F. H. MILLER JR P.S. - SNP", "type": "Student Nutrition Site", "address": "300 CALEDONIA RD" }, "geometry": { "type": "Point", "coordinates": [ -79.4589, 43.68401 ] } },
{ "type": "Feature", "properties": { "_id": 12978, "name": "FAIRBANK MEMORIAL BREAKFAST CLUB", "type": "Student Nutrition Site", "address": "555 HARVIE AVE" }, "geometry": { "type": "Point", "coordinates": [ -79.45541, 43.69171 ] } },
{ "type": "Feature", "properties": { "_id": 12981, "name": "FAIRBANK PUBLIC SCHOOL", "type": "Student Nutrition Site", "address": "2335 DUFFERIN ST" }, "geometry": { "type": "Point", "coordinates": [ -79.44942, 43.69436 ] } },
{ "type": "Feature", "properties": { "_id": 13209, "name": "FATHER HENRY CARR CATHOLIC SECONDARY SCHOOL", "type": "Student Nutrition Site", "address": "1760 MARTIN GROVE RD" }, "geometry": { "type": "Point", "coordinates": [ -79.59238, 43.73585 ] } },
{ "type": "Feature", "properties": { "_id": 13211, "name": "FATHER JOHN REDMOND C.S.S. & REGIONAL ARTS CENTRE", "type": "Student Nutrition Site", "address": "28 COLONEL SAMUEL SMITH PARK DR" }, "geometry": { "type": "Point", "coordinates": [ -79.51654, 43.59515 ] } },
{ "type": "Feature", "properties": { "_id": 13374, "name": "FINCH PUBLIC SCHOOL", "type": "Student Nutrition Site", "address": "277 FINCH AVE E" }, "geometry": { "type": "Point", "coordinates": [ -79.39498, 43.78384 ] } },
{ "type": "Feature", "properties": { "_id": 13426, "name": "FIRGROVE PUBLIC SCHOOL", "type": "Student Nutrition Site", "address": "270 FIRGROVE CRES" }, "geometry": { "type": "Point", "coordinates": [ -79.51991, 43.75201 ] } },
{ "type": "Feature", "properties": { "_id": 13495, "name": "FISHERVILLE SENIOR PUBLIC SCHOOL", "type": "Student Nutrition Site", "address": "425 PATRICIA AVE" }, "geometry": { "type": "Point", "coordinates": [ -79.44101, 43.78457 ] } },
{ "type": "Feature", "properties": { "_id": 13570, "name": "FLEMINGTON FOOD WORKS", "type": "Student Nutrition Site", "address": "9 GRENOBLE DR" }, "geometry": { "type": "Point", "coordinates": [ -79.33226, 43.71528 ] } },
{ "type": "Feature", "properties": { "_id": 14033, "name": "FRASER MUSTARD EARLY LEARNING ACADEMY", "type": "Student Nutrition Site", "address": "82 THORNCLIFFE PARK DR" }, "geometry": { "type": "Point", "coordinates": [ -79.3434, 43.70561 ] } },
{ "type": "Feature", "properties": { "_id": 14851, "name": "G.R.A.S.P.", "type": "Student Nutrition Site", "address": "15 GREENLAND RD" }, "geometry": { "type": "Point", "coordinates": [ -79.33854, 43.73362 ] } },
{ "type": "Feature", "properties": { "_id": 14970, "name": "GALLOWAY ROAD PUBLIC SCHOOL SNACK PROGRAM", "type": "Student Nutrition Site", "address": "192 GALLOWAY RD" }, "geometry": { "type": "Point", "coordinates": [ -79.19392, 43.76018 ] } },
{ "type": "Feature", "properties": { "_id": 15057, "name": "GATEWAY BLVD PUBLIC SCHOOL", "type": "Student Nutrition Site", "address": "55 GATEWAY BLVD" }, "geometry": { "type": "Point", "coordinates": [ -79.33101, 43.71173 ] } },
{ "type": "Feature", "properties": { "_id": 15174, "name": "GENERAL BROCK SNACK PROG", "type": "Student Nutrition Site", "address": "140 CHESTNUT CRES" }, "geometry": { "type": "Point", "coordinates": [ -79.27487, 43.71842 ] } },
{ "type": "Feature", "properties": { "_id": 15178, "name": "GENERAL MERCER JUNIOR PUBLIC SCHOOL", "type": "Student Nutrition Site", "address": "30 TURNBERRY AVE" }, "geometry": { "type": "Point", "coordinates": [ -79.46402, 43.67907 ] } },
{ "type": "Feature", "properties": { "_id": 15197, "name": "GEORGE ANDERSON PUBLIC SCHOOL", "type": "Student Nutrition Site", "address": "30 GEORGE ANDERSON DR" }, "geometry": { "type": "Point", "coordinates": [ -79.47895, 43.70546 ] } },
{ "type": "Feature", "properties": { "_id": 15208, "name": "GEORGE P. MACKIE JUNIOR PS - SNP", "type": "Student Nutrition Site", "address": "60 HEATHFIELD DR" }, "geometry": { "type": "Point", "coordinates": [ -79.212, 43.73934 ] } },
{ "type": "Feature", "properties": { "_id": 15210, "name": "GEORGE SYME - PUBLIC SCHOOL", "type": "Student Nutrition Site", "address": "69 PRITCHARD AVE" }, "geometry": { "type": "Point", "coordinates": [ -79.49113, 43.66926 ] } },
{ "type": "Feature", "properties": { "_id": 15471, "name": "GIVINS/SHAW SCHOOL", "type": "Student Nutrition Site", "address": "49 GIVINS ST" }, "geometry": { "type": "Point", "coordinates": [ -79.41759, 43.64642 ] } },
{ "type": "Feature", "properties": { "_id": 15480, "name": "GLAMORGAN JR. P.S. - SNACK PROGRAM", "type": "Student Nutrition Site", "address": "51 ANTRIM CRES" }, "geometry": { "type": "Point", "coordinates": [ -79.28956, 43.77131 ] } },
{ "type": "Feature", "properties": { "_id": 15495, "name": "GLEN PARK PUBLIC SCHOOL", "type": "Student Nutrition Site", "address": "101 ENGLEMOUNT AVE" }, "geometry": { "type": "Point", "coordinates": [ -79.43639, 43.71318 ] } },
{ "type": "Feature", "properties": { "_id": 15496, "name": "GLEN RAVINE JUNIOR BREAKFAST CLUB", "type": "Student Nutrition Site", "address": "11 GADSBY DR" }, "geometry": { "type": "Point", "coordinates": [ -79.25406, 43.73823 ] } },
{ "type": "Feature", "properties": { "_id": 15984, "name": "GRACEDALE PUBLIC SCHOOL", "type": "Student Nutrition Site", "address": "186 GRACEDALE BLVD" }, "geometry": { "type": "Point", "coordinates": [ -79.56185, 43.75321 ] } },
{ "type": "Feature", "properties": { "_id": 15987, "name": "GRACEFIELD.P.S-GET MOVING AFTER SCHOOL PROGRAM", "type": "Student Nutrition Site", "address": "177 GRACEFIELD AVE" }, "geometry": { "type": "Point", "coordinates": [ -79.49134, 43.70933 ] } },
{ "type": "Feature", "properties": { "_id": 16146, "name": "GREENHOLME JUNIOR MIDDLE SCHOOL", "type": "Student Nutrition Site", "address": "10 JAMESTOWN CRES" }, "geometry": { "type": "Point", "coordinates": [ -79.58291, 43.73508 ] } },
{ "type": "Feature", "properties": { "_id": 16147, "name": "GREENHOLME JUNIOR MIDDLE SCHOOL (BEFORE & AFTER)", "type": "Student Nutrition Site", "address": "10 JAMESTOWN CRES" }, "geometry": { "type": "Point", "coordinates": [ -79.58291, 43.73508 ] } },
{ "type": "Feature", "properties": { "_id": 16148, "name": "GREENHOLME JUNIOR MIDDLE SCHOOL SNACK PROGRAM", "type": "Student Nutrition Site", "address": "10 JAMESTOWN CRES" }, "geometry": { "type": "Point", "coordinates": [ -79.58291, 43.73508 ] } },
{ "type": "Feature", "properties": { "_id": 16189, "name": "GREENWOOD STUDENT NUTRITION", "type": "Student Nutrition Site", "address": "800 GREENWOOD AVE" }, "geometry": { "type": "Point", "coordinates": [ -79.33409, 43.68285 ] } },
{ "type": "Feature", "properties": { "_id": 16201, "name": "GREY OWL JUNIOR SNACK PROGRAM", "type": "Student Nutrition Site", "address": "150 WICKSON TRL" }, "geometry": { "type": "Point", "coordinates": [ -79.2133, 43.804 ] } },
{ "type": "Feature", "properties": { "_id": 16317, "name": "GUILDWOOD JR. P.S. SNACK PROGRAM", "type": "Student Nutrition Site", "address": "225 LIVINGSTON RD" }, "geometry": { "type": "Point", "coordinates": [ -79.19999, 43.75083 ] } },
{ "type": "Feature", "properties": { "_id": 16351, "name": "GULFSTREAM PUBLIC SCHOOL", "type": "Student Nutrition Site", "address": "20 GULFSTREAM RD" }, "geometry": { "type": "Point", "coordinates": [ -79.54201, 43.73909 ] } },
{ "type": "Feature", "properties": { "_id": 16532, "name": "Golf Road School SNP", "type": "Student Nutrition Site", "address": "730 SCARBOROUGH GOLF CLUB RD" }, "geometry": { "type": "Point", "coordinates": [ -79.21697, 43.76367 ] } },
{ "type": "Feature", "properties": { "_id": 16588, "name": "H. A. HALBERT JR. PS - SNP", "type": "Student Nutrition Site", "address": "31 MCCOWAN RD" }, "geometry": { "type": "Point", "coordinates": [ -79.23174, 43.72766 ] } },
{ "type": "Feature", "properties": { "_id": 16589, "name": "H.J. ALEXANDER - NUTRITION PROGRAM", "type": "Student Nutrition Site", "address": "30 KING ST" }, "geometry": { "type": "Point", "coordinates": [ -79.52055, 43.7025 ] } },
{ "type": "Feature", "properties": { "_id": 17064, "name": "HARWOOD PUBLIC SCHOOL", "type": "Student Nutrition Site", "address": "50 LEIGH ST" }, "geometry": { "type": "Point", "coordinates": [ -79.47842, 43.67619 ] } },
{ "type": "Feature", "properties": { "_id": 17240, "name": "HEATHER HEIGHTS JR P.S.", "type": "Student Nutrition Site", "address": "80 SLAN AVE" }, "geometry": { "type": "Point", "coordinates": [ -79.21507, 43.77516 ] } },
{ "type": "Feature", "properties": { "_id": 17519, "name": "HIGHCASTLE P.S.", "type": "Student Nutrition Site", "address": "370 MILITARY TRL" }, "geometry": { "type": "Point", "coordinates": [ -79.2125, 43.78677 ] } },
{ "type": "Feature", "properties": { "_id": 17521, "name": "HIGHFIELD JUNIOR SCHOOL", "type": "Student Nutrition Site", "address": "85 MOUNT OLIVE DR" }, "geometry": { "type": "Point", "coordinates": [ -79.58921, 43.74558 ] } },
{ "type": "Feature", "properties": { "_id": 17524, "name": "HIGHVIEW PUBLIC SCHOOL", "type": "Student Nutrition Site", "address": "22 HIGHVIEW AVE" }, "geometry": { "type": "Point", "coordinates": [ -79.49723, 43.72196 ] } },
{ "type": "Feature", "properties": { "_id": 17546, "name": "HILLTOP MIDDLE SCHOOL STUDENT NUTRITION", "type": "Student Nutrition Site", "address": "35 TREHORNE DR" }, "geometry": { "type": "Point", "coordinates": [ -79.53307, 43.68947 ] } },
{ "type": "Feature", "properties": { "_id": 17671, "name": "HOLLYCREST MIDDLE SCHOOL", "type": "Student Nutrition Site", "address": "630 RENFORTH DR" }, "geometry": { "type": "Point", "coordinates": [ -79.58271, 43.65611 ] } },
{ "type": "Feature", "properties": { "_id": 17689, "name": "HOLY CHILD CATHOLIC SCHOOL(STUDENT NUTRITION)", "type": "Student Nutrition Site", "address": "850 HUMBERWOOD BLVD" }, "geometry": { "type": "Point", "coordinates": [ -79.61919, 43.72889 ] } },
{ "type": "Feature", "properties": { "_id": 17706, "name": "HOLY FAMILY SEPARATE SCHOOL", "type": "Student Nutrition Site", "address": "141 CLOSE AVE, Room-210" }, "geometry": { "type": "Point", "coordinates": [ -79.43491, 43.63876 ] } },
{ "type": "Feature", "properties": { "_id": 17709, "name": "HOLY ROSARY CATHOLIC SCHOOL, STUDENT NUTRITION PROGRAM", "type": "Student Nutrition Site", "address": "308 TWEEDSMUIR AVE" }, "geometry": { "type": "Point", "coordinates": [ -79.41405, 43.68506 ] } },
{ "type": "Feature", "properties": { "_id": 18110, "name": "HUMBER SUMMIT MIDDLE SCHOOL STUDENT NUTRITION PROGRAM", "type": "Student Nutrition Site", "address": "60 PEARLDALE AVE" }, "geometry": { "type": "Point", "coordinates": [ -79.56453, 43.75057 ] } },
{ "type": "Feature", "properties": { "_id": 18123, "name": "HUMBERWOOD DOWNS JR MIDDLE ACADEMY (STUDENT NUTRITION)", "type": "Student Nutrition Site", "address": "850 HUMBERWOOD BLVD" }, "geometry": { "type": "Point", "coordinates": [ -79.61919, 43.72889 ] } },
{ "type": "Feature", "properties": { "_id": 18318, "name": "Heather Heights P.S. East Scarborough Boys & Girls Club", "type": "Student Nutrition Site", "address": "80 SLAN AVE" }, "geometry": { "type": "Point", "coordinates": [ -79.21507, 43.77516 ] } },
{ "type": "Feature", "properties": { "_id": 18340, "name": "Holy Spriit Catholic School Snack Program", "type": "Student Nutrition Site", "address": "3530 SHEPPARD AVE E" }, "geometry": { "type": "Point", "coordinates": [ -79.3031, 43.78122 ] } },
{ "type": "Feature", "properties": { "_id": 18562, "name": "IMMACULATE CONCEPTION CATHOLIC SCHOOL - STUDENT NUTRITION PROGRAM", "type": "Student Nutrition Site", "address": "23 COMAY RD" }, "geometry": { "type": "Point", "coordinates": [ -79.47782, 43.69769 ] } },
{ "type": "Feature", "properties": { "_id": 18699, "name": "INDIAN ROAD CRESCENT PUBLIC SCHOOL", "type": "Student Nutrition Site", "address": "285 INDIAN ROAD CRES" }, "geometry": { "type": "Point", "coordinates": [ -79.46008, 43.66254 ] } },
{ "type": "Feature", "properties": { "_id": 18894, "name": "IONVIEW PUBLIC SCHOOL SNACK PROGRAM", "type": "Student Nutrition Site", "address": "90 IONVIEW RD" }, "geometry": { "type": "Point", "coordinates": [ -79.2747, 43.73762 ] } },
{ "type": "Feature", "properties": { "_id": 19141, "name": "Inglewood Heights Jr P.S.", "type": "Student Nutrition Site", "address": "45 DEMPSTER ST" }, "geometry": { "type": "Point", "coordinates": [ -79.29208, 43.77995 ] } },
{ "type": "Feature", "properties": { "_id": 19194, "name": "J.R. WILCOX PS BREAKFAST PROGRAM", "type": "Student Nutrition Site", "address": "231 AVA RD" }, "geometry": { "type": "Point", "coordinates": [ -79.43631, 43.69496 ] } },
{ "type": "Feature", "properties": { "_id": 19300, "name": "JAMES CARDINAL MCGUIGAN BREAKFAST PROGRAM", "type": "Student Nutrition Site", "address": "1440 FINCH AVE W" }, "geometry": { "type": "Point", "coordinates": [ -79.4938, 43.7633 ] } },
{ "type": "Feature", "properties": { "_id": 19302, "name": "JAMES CULNAN CATHOLIC SCHOOL", "type": "Student Nutrition Site", "address": "605 WILLARD AVE" }, "geometry": { "type": "Point", "coordinates": [ -79.48559, 43.66112 ] } },
{ "type": "Feature", "properties": { "_id": 19303, "name": "JAMES S. BELL KINDER - Student Nutrition Program", "type": "Student Nutrition Site", "address": "90 THIRTY FIRST ST" }, "geometry": { "type": "Point", "coordinates": [ -79.53019, 43.59436 ] } },
{ "type": "Feature", "properties": { "_id": 19440, "name": "JEANNE - LAJOIE", "type": "Student Nutrition Site", "address": "150 CARNFORTH RD" }, "geometry": { "type": "Point", "coordinates": [ -79.3215, 43.73451 ] } },
{ "type": "Feature", "properties": { "_id": 19776, "name": "JOHN D PARKER JUNIOR SCHOOL", "type": "Student Nutrition Site", "address": "202 MOUNT OLIVE DR" }, "geometry": { "type": "Point", "coordinates": [ -79.59579, 43.7534 ] } },
{ "type": "Feature", "properties": { "_id": 19777, "name": "JOHN ENGLISH SCHOOL STUDENT NUTRITION SITE", "type": "Student Nutrition Site", "address": "95 MIMICO AVE" }, "geometry": { "type": "Point", "coordinates": [ -79.49442, 43.61186 ] } },
{ "type": "Feature", "properties": { "_id": 19789, "name": "JOHN POLANYI COLLEGIATE INSTITUTE", "type": "Student Nutrition Site", "address": "640 LAWRENCE AVE W" }, "geometry": { "type": "Point", "coordinates": [ -79.43986, 43.71782 ] } },
{ "type": "Feature", "properties": { "_id": 19886, "name": "JOSEPH BRANT PS - SNP", "type": "Student Nutrition Site", "address": "270 MANSE RD" }, "geometry": { "type": "Point", "coordinates": [ -79.17574, 43.76698 ] } },
{ "type": "Feature", "properties": { "_id": 20091, "name": "Jean Vanier CSS", "type": "Student Nutrition Site", "address": "959 MIDLAND AVE" }, "geometry": { "type": "Point", "coordinates": [ -79.25842, 43.73795 ] } },
{ "type": "Feature", "properties": { "_id": 20487, "name": "KEELESDALE JUNIOR PUBLIC SCHOOL", "type": "Student Nutrition Site", "address": "200 BICKNELL AVE" }, "geometry": { "type": "Point", "coordinates": [ -79.47695, 43.68697 ] } },
{ "type": "Feature", "properties": { "_id": 20557, "name": "KENSINGTON JR COMMUNITY SCHOOL", "type": "Student Nutrition Site", "address": "401 COLLEGE ST" }, "geometry": { "type": "Point", "coordinates": [ -79.40573, 43.65641 ] } },
{ "type": "Feature", "properties": { "_id": 21013, "name": "KIDZ KARE DAYCARE", "type": "Student Nutrition Site", "address": "15 YORK ST" }, "geometry": { "type": "Point", "coordinates": [ -79.38021, 43.64305 ] } },
{ "type": "Feature", "properties": { "_id": 21312, "name": "KINGSVIEW VILLAGE COMM. SCHOOL SNACK PROGRAM", "type": "Student Nutrition Site", "address": "1 YORK RD" }, "geometry": { "type": "Point", "coordinates": [ -79.55079, 43.69788 ] } },
{ "type": "Feature", "properties": { "_id": 21504, "name": "KNOB HILL PS - SNP", "type": "Student Nutrition Site", "address": "25 SEMINOLE AVE" }, "geometry": { "type": "Point", "coordinates": [ -79.24979, 43.7453 ] } },
{ "type": "Feature", "properties": { "_id": 22497, "name": "LAKESHORE COLLEGIATE INSTITUTE", "type": "Student Nutrition Site", "address": "350 KIPLING AVE" }, "geometry": { "type": "Point", "coordinates": [ -79.51916, 43.60157 ] } },
{ "type": "Feature", "properties": { "_id": 22551, "name": "LAMBTON PARK COMMUNITY CENTRE", "type": "Student Nutrition Site", "address": "50 BERNICE CRES" }, "geometry": { "type": "Point", "coordinates": [ -79.49831, 43.66758 ] } },
{ "type": "Feature", "properties": { "_id": 22677, "name": "LAWRENCE HEIGHTS COMMUNITY CENTRE", "type": "Student Nutrition Site", "address": "5 REPLIN RD" }, "geometry": { "type": "Point", "coordinates": [ -79.44236, 43.718 ] } },
{ "type": "Feature", "properties": { "_id": 22682, "name": "LAWRENCE HEIGHTS MIDDLE SCHOOL", "type": "Student Nutrition Site", "address": "50 HIGHLAND HILL" }, "geometry": { "type": "Point", "coordinates": [ -79.45108, 43.72084 ] } },
{ "type": "Feature", "properties": { "_id": 23017, "name": "LESLIEVILLE PUBLIC SCHOOL STUDENT NUTRITION SITE", "type": "Student Nutrition Site", "address": "254 LESLIE ST" }, "geometry": { "type": "Point", "coordinates": [ -79.33241, 43.66733 ] } },
{ "type": "Feature", "properties": { "_id": 23625, "name": "LORD LANSDOWNE PUBLIC SCHOOL", "type": "Student Nutrition Site", "address": "33 ROBERT ST" }, "geometry": { "type": "Point", "coordinates": [ -79.40191, 43.65896 ] } },
{ "type": "Feature", "properties": { "_id": 23836, "name": "LUCY MCCORMICK SENIOR SCHOOL SNACK PROGRAM", "type": "Student Nutrition Site", "address": "2717 DUNDAS ST W" }, "geometry": { "type": "Point", "coordinates": [ -79.46018, 43.66464 ] } },
{ "type": "Feature", "properties": { "_id": 23888, "name": "LYNNGATE PUBLIC SCHOOL", "type": "Student Nutrition Site", "address": "129 CASS AVE" }, "geometry": { "type": "Point", "coordinates": [ -79.30072, 43.77648 ] } },
{ "type": "Feature", "properties": { "_id": 24307, "name": "MADONNA SEPARATE SCHOOL", "type": "Student Nutrition Site", "address": "20 DUBRAY AVE" }, "geometry": { "type": "Point", "coordinates": [ -79.47748, 43.72952 ] } },
{ "type": "Feature", "properties": { "_id": 24747, "name": "MAPLE LEAF PUBLIC SCHOOL", "type": "Student Nutrition Site", "address": "301 CULFORD RD" }, "geometry": { "type": "Point", "coordinates": [ -79.49028, 43.71486 ] } },
{ "type": "Feature", "properties": { "_id": 24768, "name": "MAPLEWOOD STUDENT NUTRITION PROGRAM", "type": "Student Nutrition Site", "address": "120 GALLOWAY RD" }, "geometry": { "type": "Point", "coordinates": [ -79.1949, 43.75891 ] } },
{ "type": "Feature", "properties": { "_id": 24808, "name": "MARC GARNEAU COLLEGIATE INSTITUTE", "type": "Student Nutrition Site", "address": "135 OVERLEA BLVD" }, "geometry": { "type": "Point", "coordinates": [ -79.33497, 43.70898 ] } },
{ "type": "Feature", "properties": { "_id": 24962, "name": "MARKET LANE PUBLIC SCHOOL", "type": "Student Nutrition Site", "address": "246 THE ESPLANADE" }, "geometry": { "type": "Point", "coordinates": [ -79.36353, 43.65008 ] } },
{ "type": "Feature", "properties": { "_id": 25094, "name": "MASON ROAD JUNIOR SNACK PROGRAM", "type": "Student Nutrition Site", "address": "78 MASON RD" }, "geometry": { "type": "Point", "coordinates": [ -79.22569, 43.73926 ] } },
{ "type": "Feature", "properties": { "_id": 25741, "name": "MELODY VILLAGE JUNIOR SCHOOL(STUDENT NUTRITION)", "type": "Student Nutrition Site", "address": "520 SILVERSTONE DR" }, "geometry": { "type": "Point", "coordinates": [ -79.59485, 43.73814 ] } },
{ "type": "Feature", "properties": { "_id": 26109, "name": "MILITARY TRAIL P.S. SNACK PROGRAM & BREAKFAST", "type": "Student Nutrition Site", "address": "701 MILITARY TRL" }, "geometry": { "type": "Point", "coordinates": [ -79.19712, 43.78912 ] } },
{ "type": "Feature", "properties": { "_id": 26547, "name": "MONARCH PARK COLLEGIATE STUDENT NUTRITION PROGRAM", "type": "Student Nutrition Site", "address": "1 HANSON ST" }, "geometry": { "type": "Point", "coordinates": [ -79.32277, 43.67928 ] } },
{ "type": "Feature", "properties": { "_id": 26701, "name": "MONSIGNOR FRASER COLLEGE", "type": "Student Nutrition Site", "address": "45 NORFINCH DR" }, "geometry": { "type": "Point", "coordinates": [ -79.52705, 43.75782 ] } },
{ "type": "Feature", "properties": { "_id": 26702, "name": "MONSIGNOR FRASER COLLEGE ISABELLA", "type": "Student Nutrition Site", "address": "146 ISABELLA ST" }, "geometry": { "type": "Point", "coordinates": [ -79.37716, 43.66981 ] } },
{ "type": "Feature", "properties": { "_id": 26703, "name": "MONSIGNOR FRASER COLLEGE-ANNEX CAMPUS", "type": "Student Nutrition Site", "address": "700 MARKHAM ST" }, "geometry": { "type": "Point", "coordinates": [ -79.41375, 43.66726 ] } },
{ "type": "Feature", "properties": { "_id": 26704, "name": "MONSIGNOR JOHN CORRIGAN CATHOLIC SCHOOL(STUDENT NUTR)", "type": "Student Nutrition Site", "address": "100 ROYALCREST RD" }, "geometry": { "type": "Point", "coordinates": [ -79.60502, 43.75158 ] } },
{ "type": "Feature", "properties": { "_id": 26705, "name": "MONSIGNOR PERCY JOHNSON CATHOLIC SECONDARY SCHOOL", "type": "Student Nutrition Site", "address": "2170 KIPLING AVE" }, "geometry": { "type": "Point", "coordinates": [ -79.57202, 43.7207 ] } },
{ "type": "Feature", "properties": { "_id": 26760, "name": "MONTROSE JUNIOR PUBLIC SCHOOL SCHOOL NOURISHMENT", "type": "Student Nutrition Site", "address": "301 MONTROSE AVE" }, "geometry": { "type": "Point", "coordinates": [ -79.41885, 43.65869 ] } },
{ "type": "Feature", "properties": { "_id": 27372, "name": "MUSLIM GIRLS SCHOOL", "type": "Student Nutrition Site", "address": "10 VULCAN ST" }, "geometry": { "type": "Point", "coordinates": [ -79.57864, 43.70528 ] } },
{ "type": "Feature", "properties": { "_id": 27539, "name": "Malvern JPS Student Nutrition Program", "type": "Student Nutrition Site", "address": "70 MAMMOTH HALL TRL" }, "geometry": { "type": "Point", "coordinates": [ -79.23315, 43.79787 ] } },
{ "type": "Feature", "properties": { "_id": 27686, "name": "Monsignor Fraser College (Midland Campus)", "type": "Student Nutrition Site", "address": "2900 MIDLAND AVE" }, "geometry": { "type": "Point", "coordinates": [ -79.28572, 43.80108 ] } },
{ "type": "Feature", "properties": { "_id": 28323, "name": "NIAGARA ST JUNIOR PUBLIC SCHOOL", "type": "Student Nutrition Site", "address": "222 NIAGARA ST" }, "geometry": { "type": "Point", "coordinates": [ -79.40826, 43.64395 ] } },
{ "type": "Feature", "properties": { "_id": 28553, "name": "NORMAN COOK SNACK PROGRAM", "type": "Student Nutrition Site", "address": "752 DANFORTH RD" }, "geometry": { "type": "Point", "coordinates": [ -79.25745, 43.72092 ] } },
{ "type": "Feature", "properties": { "_id": 28563, "name": "NORTH ALBION COLLEGIATE INSTITUTE (SNP)", "type": "Student Nutrition Site", "address": "2580 KIPLING AVE" }, "geometry": { "type": "Point", "coordinates": [ -79.58515, 43.74715 ] } },
{ "type": "Feature", "properties": { "_id": 28579, "name": "NORTH KIPLING JR. MIDDLE SCHOOL BREAKFAST PROGRAM", "type": "Student Nutrition Site", "address": "2 ROWNTREE RD" }, "geometry": { "type": "Point", "coordinates": [ -79.5849, 43.75177 ] } },
{ "type": "Feature", "properties": { "_id": 28580, "name": "NORTH KIPLING JUNIOR MIDDLE SCHOOL NUTRITION PROGRAM", "type": "Student Nutrition Site", "address": "2 ROWNTREE RD" }, "geometry": { "type": "Point", "coordinates": [ -79.5849, 43.75177 ] } },
{ "type": "Feature", "properties": { "_id": 28675, "name": "NORTHLEA ELEMENTARY AND MIDDLE SCHOOL", "type": "Student Nutrition Site", "address": "305 RUMSEY RD, Bsmt-Servery" }, "geometry": { "type": "Point", "coordinates": [ -79.37018, 43.71463 ] } },
{ "type": "Feature", "properties": { "_id": 28683, "name": "NORTHVIEW HEIGHTS SECONDARY SCHOOL", "type": "Student Nutrition Site", "address": "550 FINCH AVE W" }, "geometry": { "type": "Point", "coordinates": [ -79.44612, 43.77388 ] } },
{ "type": "Feature", "properties": { "_id": 28836, "name": "NUTRITION INTERVENTION CENTRE KITCHEN - 2nd Floor", "type": "Student Nutrition Site", "address": "6 QUEENS PARK CRES W" }, "geometry": { "type": "Point", "coordinates": [ -79.3915, 43.66053 ] } },
{ "type": "Feature", "properties": { "_id": 28941, "name": "North Bridlewood Jr. P.S.-Snack Program", "type": "Student Nutrition Site", "address": "50 COLLINGSBROOK BLVD" }, "geometry": { "type": "Point", "coordinates": [ -79.31859, 43.78892 ] } },
{ "type": "Feature", "properties": { "_id": 28996, "name": "OAKDALE PARK P.S.", "type": "Student Nutrition Site", "address": "315 GRANDRAVINE DR" }, "geometry": { "type": "Point", "coordinates": [ -79.512, 43.74747 ] } },
{ "type": "Feature", "properties": { "_id": 29006, "name": "OAKWOOD COLLEGIATE INSTITUTE (BREAKFAST PROGRAM)", "type": "Student Nutrition Site", "address": "991 ST CLAIR AVE W" }, "geometry": { "type": "Point", "coordinates": [ -79.43638, 43.67866 ] } },
{ "type": "Feature", "properties": { "_id": 29345, "name": "ORDE STREET JUNIOR PUBLIC SCHOOL", "type": "Student Nutrition Site", "address": "18 ORDE ST" }, "geometry": { "type": "Point", "coordinates": [ -79.39226, 43.65864 ] } },
{ "type": "Feature", "properties": { "_id": 29545, "name": "OSSINGTON PUBLIC SCHOOL", "type": "Student Nutrition Site", "address": "380 OSSINGTON AVE" }, "geometry": { "type": "Point", "coordinates": [ -79.4226, 43.65272 ] } },
{ "type": "Feature", "properties": { "_id": 29572, "name": "OUR LADY OF ASSUMPTION CATHOLIC SCHOOL", "type": "Student Nutrition Site", "address": "125 GLENMOUNT AVE" }, "geometry": { "type": "Point", "coordinates": [ -79.43129, 43.7162 ] } },
{ "type": "Feature", "properties": { "_id": 29574, "name": "OUR LADY OF GUADALUPE", "type": "Student Nutrition Site", "address": "3105 DON MILLS RD" }, "geometry": { "type": "Point", "coordinates": [ -79.35335, 43.78988 ] } },
{ "type": "Feature", "properties": { "_id": 29579, "name": "OUR LADY OF VICTORY BEFORE AND AFTER SNACK PROGRAM", "type": "Student Nutrition Site", "address": "70 GUESTVILLE AVE" }, "geometry": { "type": "Point", "coordinates": [ -79.49032, 43.68333 ] } },
{ "type": "Feature", "properties": { "_id": 29582, "name": "OUR LADYOF VICTORY SNACK CLUB", "type": "Student Nutrition Site", "address": "70 GUESTVILLE AVE" }, "geometry": { "type": "Point", "coordinates": [ -79.49032, 43.68333 ] } },
{ "type": "Feature", "properties": { "_id": 29639, "name": "Oakridge Jr. Playcare", "type": "Student Nutrition Site", "address": "110 BYNG AVE" }, "geometry": { "type": "Point", "coordinates": [ -79.28255, 43.69497 ] } },
{ "type": "Feature", "properties": { "_id": 30227, "name": "PARKDALE COLLEGIATE", "type": "Student Nutrition Site", "address": "209 JAMESON AVE" }, "geometry": { "type": "Point", "coordinates": [ -79.43607, 43.63967 ] } },
{ "type": "Feature", "properties": { "_id": 30243, "name": "PARKFIELD JUNIOR SCHOOL", "type": "Student Nutrition Site", "address": "31 REDGRAVE DR" }, "geometry": { "type": "Point", "coordinates": [ -79.56977, 43.6821 ] } },
{ "type": "Feature", "properties": { "_id": 30418, "name": "PAULINE JOHNSON JR. P.S. - SNACK PROGRAM", "type": "Student Nutrition Site", "address": "35 DUNMURRAY BLVD" }, "geometry": { "type": "Point", "coordinates": [ -79.30357, 43.78514 ] } },
{ "type": "Feature", "properties": { "_id": 30419, "name": "PAULINE JUNIOR PUBLIC SCHOOL", "type": "Student Nutrition Site", "address": "100 PAULINE AVE" }, "geometry": { "type": "Point", "coordinates": [ -79.43915, 43.6625 ] } },
{ "type": "Feature", "properties": { "_id": 30503, "name": "PELMO PARK PUBLIC SCHOOL", "type": "Student Nutrition Site", "address": "180 GARY DR" }, "geometry": { "type": "Point", "coordinates": [ -79.51812, 43.71207 ] } },
{ "type": "Feature", "properties": { "_id": 30624, "name": "PERTH AVENUE JR. PUBLIC SCHOOL (SNACK)", "type": "Student Nutrition Site", "address": "14 RUSKIN AVE" }, "geometry": { "type": "Point", "coordinates": [ -79.45242, 43.66284 ] } },
{ "type": "Feature", "properties": { "_id": 31250, "name": "PIERRE LA PORTE MIDDLE SCHOOL", "type": "Student Nutrition Site", "address": "1270 WILSON AVE" }, "geometry": { "type": "Point", "coordinates": [ -79.49213, 43.72508 ] } },
{ "type": "Feature", "properties": { "_id": 31288, "name": "PINEWAY PUBLIC SCHOOL", "type": "Student Nutrition Site", "address": "110 PINEWAY BLVD" }, "geometry": { "type": "Point", "coordinates": [ -79.37473, 43.79578 ] } },
{ "type": "Feature", "properties": { "_id": 32431, "name": "PLASP Child Care Services - David Hornell", "type": "Student Nutrition Site", "address": "32 VICTORIA ST" }, "geometry": { "type": "Point", "coordinates": [ -79.4889, 43.61934 ] } },
{ "type": "Feature", "properties": { "_id": 32859, "name": "PORTAGE TRAIL COMMUNITY SCHOOL", "type": "Student Nutrition Site", "address": "100 SIDNEY BELSEY CRES" }, "geometry": { "type": "Point", "coordinates": [ -79.50977, 43.6923 ] } },
{ "type": "Feature", "properties": { "_id": 33503, "name": "QUEEN ALEXANDRA MIDDLE SCHOOL", "type": "Student Nutrition Site", "address": "181 BROADVIEW AVE" }, "geometry": { "type": "Point", "coordinates": [ -79.35052, 43.66118 ] } },
{ "type": "Feature", "properties": { "_id": 33860, "name": "RANCHDALE PUBLIC SCHOOL  STUDENT NUTRITION PROGRAM", "type": "Student Nutrition Site", "address": "60 RANCHDALE CRES" }, "geometry": { "type": "Point", "coordinates": [ -79.32329, 43.75247 ] } },
{ "type": "Feature", "properties": { "_id": 33941, "name": "RAWLINSON COMMUNITY SCHOOL", "type": "Student Nutrition Site", "address": "231 GLENHOLME AVE" }, "geometry": { "type": "Point", "coordinates": [ -79.44005, 43.68399 ] } },
{ "type": "Feature", "properties": { "_id": 34192, "name": "REGINA MUNDI CATHOLIC SCHOOL", "type": "Student Nutrition Site", "address": "70 PLAYFAIR AVE" }, "geometry": { "type": "Point", "coordinates": [ -79.45959, 43.70982 ] } },
{ "type": "Feature", "properties": { "_id": 34244, "name": "RENE GORDON HEALTH AND WELLNESS ACADEMY", "type": "Student Nutrition Site", "address": "20 KAREN RD, Rm-111" }, "geometry": { "type": "Point", "coordinates": [ -79.34038, 43.76165 ] } },
{ "type": "Feature", "properties": { "_id": 34446, "name": "RIVERDALE COLLEGE", "type": "Student Nutrition Site", "address": "1094 GERRARD ST E" }, "geometry": { "type": "Point", "coordinates": [ -79.33486, 43.67006 ] } },
{ "type": "Feature", "properties": { "_id": 34560, "name": "RODEN JUNIOR PUBLIC SCHOOL/BREAKFAST CLUB", "type": "Student Nutrition Site", "address": "151 HIAWATHA RD" }, "geometry": { "type": "Point", "coordinates": [ -79.32308, 43.67388 ] } },
{ "type": "Feature", "properties": { "_id": 34715, "name": "ROSE AVENUE PUBLIC SCHOOL", "type": "Student Nutrition Site", "address": "675 ONTARIO ST" }, "geometry": { "type": "Point", "coordinates": [ -79.37251, 43.67017 ] } },
{ "type": "Feature", "properties": { "_id": 34752, "name": "ROSELANDS JUNIOR PUBLIC SCHOOL", "type": "Student Nutrition Site", "address": "990 JANE ST" }, "geometry": { "type": "Point", "coordinates": [ -79.49906, 43.68124 ] } },
{ "type": "Feature", "properties": { "_id": 35113, "name": "RUNNYMEDE COLLEGIATE INSTITUTION - BREAKFAST PROGRAM", "type": "Student Nutrition Site", "address": "569 JANE ST" }, "geometry": { "type": "Point", "coordinates": [ -79.48981, 43.66354 ] } },
{ "type": "Feature", "properties": { "_id": 35177, "name": "RYERSON SCHOOL LUNCH", "type": "Student Nutrition Site", "address": "96 DENISON AVE" }, "geometry": { "type": "Point", "coordinates": [ -79.40264, 43.65123 ] } },
{ "type": "Feature", "properties": { "_id": 35225, "name": "Regent Heights Public School Student Nutrition Program", "type": "Student Nutrition Site", "address": "555 PHARMACY AVE" }, "geometry": { "type": "Point", "coordinates": [ -79.28891, 43.70709 ] } },
{ "type": "Feature", "properties": { "_id": 35619, "name": "SAMUEL HEARNE M.S. SCHOOL NUTRITION PROGRAM", "type": "Student Nutrition Site", "address": "21 NEWPORT AVE" }, "geometry": { "type": "Point", "coordinates": [ -79.28368, 43.69525 ] } },
{ "type": "Feature", "properties": { "_id": 35718, "name": "SANTA MARIA CATHOLIC SCHOOL", "type": "Student Nutrition Site", "address": "25 AVON AVE" }, "geometry": { "type": "Point", "coordinates": [ -79.47768, 43.68098 ] } },
{ "type": "Feature", "properties": { "_id": 35942, "name": "SCARBOROUGH VILLAGE ALTERNATIVE PUBLIC SCHOOL", "type": "Student Nutrition Site", "address": "15 LUELLA ST" }, "geometry": { "type": "Point", "coordinates": [ -79.22207, 43.74413 ] } },
{ "type": "Feature", "properties": { "_id": 35976, "name": "SCHOOL OF EXPERIENTIAL EDUCATION", "type": "Student Nutrition Site", "address": "40 MCARTHUR ST" }, "geometry": { "type": "Point", "coordinates": [ -79.54639, 43.70164 ] } },
{ "type": "Feature", "properties": { "_id": 36245, "name": "SECOND STREET SCHOOL SNACK PROGRAM", "type": "Student Nutrition Site", "address": "71 SECOND ST" }, "geometry": { "type": "Point", "coordinates": [ -79.49977, 43.60368 ] } },
{ "type": "Feature", "properties": { "_id": 36248, "name": "SECORD SCHOOL AGE PROGRAM (YMCA)", "type": "Student Nutrition Site", "address": "91 BARRINGTON AVE" }, "geometry": { "type": "Point", "coordinates": [ -79.30157, 43.69178 ] } },
{ "type": "Feature", "properties": { "_id": 36256, "name": "SEED ALTERNATIVE SCHOOL", "type": "Student Nutrition Site", "address": "885 DUNDAS ST E" }, "geometry": { "type": "Point", "coordinates": [ -79.34897, 43.66261 ] } },
{ "type": "Feature", "properties": { "_id": 36306, "name": "SENECA SCHOOL", "type": "Student Nutrition Site", "address": "580 RATHBURN RD" }, "geometry": { "type": "Point", "coordinates": [ -79.58255, 43.65094 ] } },
{ "type": "Feature", "properties": { "_id": 36375, "name": "SEVENTH STREET JUNIOR SCHOOL SNACK PROGRAM", "type": "Student Nutrition Site", "address": "101 SEVENTH ST" }, "geometry": { "type": "Point", "coordinates": [ -79.50399, 43.59972 ] } },
{ "type": "Feature", "properties": { "_id": 36780, "name": "SHEPPARD PUBLIC SCHOOL", "type": "Student Nutrition Site", "address": "1430 SHEPPARD AVE W" }, "geometry": { "type": "Point", "coordinates": [ -79.48826, 43.74543 ] } },
{ "type": "Feature", "properties": { "_id": 36859, "name": "SHIRLEY STREET PUBLIC SCHOOL", "type": "Student Nutrition Site", "address": "38 SHIRLEY ST" }, "geometry": { "type": "Point", "coordinates": [ -79.43673, 43.64853 ] } },
{ "type": "Feature", "properties": { "_id": 37059, "name": "SHOREHAM P.S.", "type": "Student Nutrition Site", "address": "31 SHOREHAM DR" }, "geometry": { "type": "Point", "coordinates": [ -79.51739, 43.76881 ] } },
{ "type": "Feature", "properties": { "_id": 37231, "name": "SILVER SPRINGS MORNING BREAKFAST PROGRAM", "type": "Student Nutrition Site", "address": "222 SILVER SPRINGS BLVD" }, "geometry": { "type": "Point", "coordinates": [ -79.30238, 43.80444 ] } },
{ "type": "Feature", "properties": { "_id": 37238, "name": "SILVERTHORN COLLEGIATE INSTITUTE- STUDENT NUTRITION PRGM", "type": "Student Nutrition Site", "address": "291 MILL RD" }, "geometry": { "type": "Point", "coordinates": [ -79.58039, 43.63784 ] } },
{ "type": "Feature", "properties": { "_id": 37243, "name": "SILVERTHORN PUBLIC SHCOOL", "type": "Student Nutrition Site", "address": "300 KANE AVE" }, "geometry": { "type": "Point", "coordinates": [ -79.46942, 43.68726 ] } },
{ "type": "Feature", "properties": { "_id": 37338, "name": "SIR WILFRED LAURIER C.I. - BREAKFAST CLUB", "type": "Student Nutrition Site", "address": "145 GUILDWOOD PKWY" }, "geometry": { "type": "Point", "coordinates": [ -79.19699, 43.74704 ] } },
{ "type": "Feature", "properties": { "_id": 37488, "name": "SLOANE PUBLIC SCHOOL", "type": "Student Nutrition Site", "address": "110 SLOANE AVE" }, "geometry": { "type": "Point", "coordinates": [ -79.31034, 43.73122 ] } },
{ "type": "Feature", "properties": { "_id": 37526, "name": "SMITHFIELD MIDDLE SCHOOL", "type": "Student Nutrition Site", "address": "175 MOUNT OLIVE DR" }, "geometry": { "type": "Point", "coordinates": [ -79.59576, 43.75002 ] } },
{ "type": "Feature", "properties": { "_id": 37574, "name": "SNACKS FOR SCHOOL SUCCESS EATONVILLE JR PUBLIC SCHOOL", "type": "Student Nutrition Site", "address": "15 ROSSBURN DR" }, "geometry": { "type": "Point", "coordinates": [ -79.56701, 43.63832 ] } },
{ "type": "Feature", "properties": { "_id": 38065, "name": "SPRUCECOURT PUBLIC SCHOOL", "type": "Student Nutrition Site", "address": "70 SPRUCE ST" }, "geometry": { "type": "Point", "coordinates": [ -79.36383, 43.66449 ] } },
{ "type": "Feature", "properties": { "_id": 38079, "name": "ST ANDRE CATHOLIC SCHOOL-SNP", "type": "Student Nutrition Site", "address": "36 YVONNE AVE" }, "geometry": { "type": "Point", "coordinates": [ -79.51764, 43.724 ] } },
{ "type": "Feature", "properties": { "_id": 38083, "name": "ST ANDREWS STUDENT NUTRITION PROGRAM", "type": "Student Nutrition Site", "address": "2533 KIPLING AVE, Bldg--" }, "geometry": { "type": "Point", "coordinates": [ -79.58239, 43.74494 ] } },
{ "type": "Feature", "properties": { "_id": 38089, "name": "ST BERNARD CATHOLIC SCHOOL STUDENT NUTRITION PROGRM", "type": "Student Nutrition Site", "address": "12 DUCKWORTH ST" }, "geometry": { "type": "Point", "coordinates": [ -79.50061, 43.70251 ] } },
{ "type": "Feature", "properties": { "_id": 38105, "name": "ST FRANCIS XAVIER BEFORE & AFTER PROGRAM", "type": "Student Nutrition Site", "address": "53 GRACEFIELD AVE, Room-103" }, "geometry": { "type": "Point", "coordinates": [ -79.48341, 43.71086 ] } },
{ "type": "Feature", "properties": { "_id": 38114, "name": "ST HELENS CATHOLIC SCHOOL", "type": "Student Nutrition Site", "address": "1196 COLLEGE ST" }, "geometry": { "type": "Point", "coordinates": [ -79.43616, 43.65209 ] } },
{ "type": "Feature", "properties": { "_id": 38118, "name": "ST JOHN VIANNEY CATHOLIC SCHOOL", "type": "Student Nutrition Site", "address": "105 THISTLE DOWN BLVD, Bldg--" }, "geometry": { "type": "Point", "coordinates": [ -79.55385, 43.73798 ] } },
{ "type": "Feature", "properties": { "_id": 38121, "name": "ST JOSEPH'S CATHOLIC SCHOOL STUDENT NUTRITION PROGRAM", "type": "Student Nutrition Site", "address": "176 LESLIE ST" }, "geometry": { "type": "Point", "coordinates": [ -79.33189, 43.66582 ] } },
{ "type": "Feature", "properties": { "_id": 38125, "name": "ST JUDE STUDENT NUTRITION PROGRAM", "type": "Student Nutrition Site", "address": "3251 WESTON RD, Bldg--" }, "geometry": { "type": "Point", "coordinates": [ -79.53926, 43.74049 ] } },
{ "type": "Feature", "properties": { "_id": 38133, "name": "ST MARCELLUS CATHOLIC SCHOOL", "type": "Student Nutrition Site", "address": "15 DENFIELD ST" }, "geometry": { "type": "Point", "coordinates": [ -79.55422, 43.67979 ] } },
{ "type": "Feature", "properties": { "_id": 38134, "name": "ST MARGARET'S P.S.- SNACK PROGRAM", "type": "Student Nutrition Site", "address": "235 GALLOWAY RD" }, "geometry": { "type": "Point", "coordinates": [ -79.19594, 43.76827 ] } },
{ "type": "Feature", "properties": { "_id": 38143, "name": "ST OSCAR ROMERO CATHOLIC SECONDARY SCHOOL", "type": "Student Nutrition Site", "address": "99 HUMBER BLVD" }, "geometry": { "type": "Point", "coordinates": [ -79.4808, 43.68034 ] } },
{ "type": "Feature", "properties": { "_id": 38147, "name": "ST PAUL'S PARISH CHURCH KITCHEN", "type": "Student Nutrition Site", "address": "83 POWER ST" }, "geometry": { "type": "Point", "coordinates": [ -79.36303, 43.65484 ] } },
{ "type": "Feature", "properties": { "_id": 38157, "name": "ST ROCH CATHOLIC SCOOL", "type": "Student Nutrition Site", "address": "174 DUNCANWOODS DR, Bldg--" }, "geometry": { "type": "Point", "coordinates": [ -79.56675, 43.75372 ] } },
{ "type": "Feature", "properties": { "_id": 38159, "name": "ST THOMAS AQUINAS CATHOLIC SCHOOL", "type": "Student Nutrition Site", "address": "636 GLENHOLME AVE" }, "geometry": { "type": "Point", "coordinates": [ -79.44575, 43.6959 ] } },
{ "type": "Feature", "properties": { "_id": 38190, "name": "ST. BASIL THE GREAT COLLEGE SCHOOL - NUTRITION PROGRAM", "type": "Student Nutrition Site", "address": "20 STARVIEW LANE" }, "geometry": { "type": "Point", "coordinates": [ -79.534, 43.72723 ] } },
{ "type": "Feature", "properties": { "_id": 38193, "name": "ST. BENEDICT CATHOLIC SCHOOL", "type": "Student Nutrition Site", "address": "2202 KIPLING AVE" }, "geometry": { "type": "Point", "coordinates": [ -79.57333, 43.72305 ] } },
{ "type": "Feature", "properties": { "_id": 38199, "name": "ST. BONI FACE SNACK PROGRAM", "type": "Student Nutrition Site", "address": "20 MARKANNA DR" }, "geometry": { "type": "Point", "coordinates": [ -79.21998, 43.74093 ] } },
{ "type": "Feature", "properties": { "_id": 38201, "name": "ST. BRIGID CATHOLIC SCHOOL", "type": "Student Nutrition Site", "address": "50 WOODMOUNT AVE" }, "geometry": { "type": "Point", "coordinates": [ -79.3169, 43.68696 ] } },
{ "type": "Feature", "properties": { "_id": 38202, "name": "ST. BRUNO/ ST. RAYMOND CATHOLIC SCHOOL SNACK PROGRAM", "type": "Student Nutrition Site", "address": "402 MELITA CRES" }, "geometry": { "type": "Point", "coordinates": [ -79.42707, 43.67325 ] } },
{ "type": "Feature", "properties": { "_id": 38215, "name": "ST. CONRAD SCHOOL", "type": "Student Nutrition Site", "address": "5 EXBURY RD" }, "geometry": { "type": "Point", "coordinates": [ -79.49345, 43.73009 ] } },
{ "type": "Feature", "properties": { "_id": 38219, "name": "ST. DEMETRIUS CATHOLIC SCHOOL", "type": "Student Nutrition Site", "address": "125 LA ROSE AVE" }, "geometry": { "type": "Point", "coordinates": [ -79.52197, 43.68466 ] } },
{ "type": "Feature", "properties": { "_id": 38228, "name": "ST. DOROTHY SEPARATE SCHOOL", "type": "Student Nutrition Site", "address": "155 JOHN GARLAND BLVD" }, "geometry": { "type": "Point", "coordinates": [ -79.59174, 43.7315 ] } },
{ "type": "Feature", "properties": { "_id": 38230, "name": "ST. EUGENE CATHOLIC SCHOOL", "type": "Student Nutrition Site", "address": "30 WESTROYAL RD" }, "geometry": { "type": "Point", "coordinates": [ -79.5375, 43.69261 ] } },
{ "type": "Feature", "properties": { "_id": 38233, "name": "ST. FIDELIS CATHOLIC SCHOOL STUDENT NUTRITION PROGRAM", "type": "Student Nutrition Site", "address": "9 BANNERMAN ST" }, "geometry": { "type": "Point", "coordinates": [ -79.48495, 43.7173 ] } },
{ "type": "Feature", "properties": { "_id": 38237, "name": "ST. FRANCIS DESALLE CATHOLIC SCHOOL", "type": "Student Nutrition Site", "address": "333 FIRGROVE CRES" }, "geometry": { "type": "Point", "coordinates": [ -79.51913, 43.75414 ] } },
{ "type": "Feature", "properties": { "_id": 38243, "name": "ST. FRANCIS XAVIER - STUDENT NUTRITION SNACK PROGRAM", "type": "Student Nutrition Site", "address": "53 GRACEFIELD AVE" }, "geometry": { "type": "Point", "coordinates": [ -79.48341, 43.71086 ] } },
{ "type": "Feature", "properties": { "_id": 38246, "name": "ST. GABRIEL CATHOLIC SCHOOL", "type": "Student Nutrition Site", "address": "396 SPRING GARDEN AVE" }, "geometry": { "type": "Point", "coordinates": [ -79.39134, 43.76937 ] } },
{ "type": "Feature", "properties": { "_id": 38257, "name": "ST. ISAAC JOGUES CATHOLIC SCHOOL", "type": "Student Nutrition Site", "address": "1330 YORK MILLS RD" }, "geometry": { "type": "Point", "coordinates": [ -79.32196, 43.76233 ] } },
{ "type": "Feature", "properties": { "_id": 38258, "name": "ST. JAMES CATHOLIC SCHOOL", "type": "Student Nutrition Site", "address": "230 HUMBERCREST BLVD" }, "geometry": { "type": "Point", "coordinates": [ -79.4954, 43.66468 ] } },
{ "type": "Feature", "properties": { "_id": 38270, "name": "ST. JOHN THE EVANGELIST CATHOLIC SCHOOL", "type": "Student Nutrition Site", "address": "23 GEORGE ST" }, "geometry": { "type": "Point", "coordinates": [ -79.52027, 43.70322 ] } },
{ "type": "Feature", "properties": { "_id": 38280, "name": "ST. JOSAPHAT CATHOLIC SCHOOL", "type": "Student Nutrition Site", "address": "110 TENTH ST" }, "geometry": { "type": "Point", "coordinates": [ -79.50906, 43.59931 ] } },
{ "type": "Feature", "properties": { "_id": 38355, "name": "ST. LOUIS SEPARATE SCHOOL", "type": "Student Nutrition Site", "address": "11 MORGAN AVE, Bldg--" }, "geometry": { "type": "Point", "coordinates": [ -79.50096, 43.62575 ] } },
{ "type": "Feature", "properties": { "_id": 38362, "name": "ST. MARGARET CATHOLIC SCHOOL", "type": "Student Nutrition Site", "address": "85 CARMICHAEL AVE" }, "geometry": { "type": "Point", "coordinates": [ -79.42663, 43.73584 ] } },
{ "type": "Feature", "properties": { "_id": 38366, "name": "ST. MARTHA CATHOLIC SCHOOL", "type": "Student Nutrition Site", "address": "1865 SHEPPARD AVE W" }, "geometry": { "type": "Point", "coordinates": [ -79.50233, 43.74108 ] } },
{ "type": "Feature", "properties": { "_id": 38371, "name": "ST. MAURICE CATHOLIC SCHOOL", "type": "Student Nutrition Site", "address": "45 KINGSVIEW BLVD" }, "geometry": { "type": "Point", "coordinates": [ -79.55394, 43.69782 ] } },
{ "type": "Feature", "properties": { "_id": 38373, "name": "ST. MICHAEL STUDENT NUTRITION PROGRAM", "type": "Student Nutrition Site", "address": "50 GEORGE ST S" }, "geometry": { "type": "Point", "coordinates": [ -79.49454, 43.60959 ] } },
{ "type": "Feature", "properties": { "_id": 38389, "name": "ST. MONICA'S STUDENT NUTRITON PROGRAM", "type": "Student Nutrition Site", "address": "14 BROADWAY AVE, Flr-3 (Room 309)" }, "geometry": { "type": "Point", "coordinates": [ -79.39763, 43.71017 ] } },
{ "type": "Feature", "properties": { "_id": 38398, "name": "ST. PAUL STUDENT NUTRITION PROGRAM", "type": "Student Nutrition Site", "address": "80 SACKVILLE ST" }, "geometry": { "type": "Point", "coordinates": [ -79.36174, 43.6555 ] } },
{ "type": "Feature", "properties": { "_id": 38413, "name": "ST. ROSE OF LIMA BREAKFAST CLUB", "type": "Student Nutrition Site", "address": "3216 LAWRENCE AVE E" }, "geometry": { "type": "Point", "coordinates": [ -79.24156, 43.75702 ] } },
{ "type": "Feature", "properties": { "_id": 38418, "name": "ST. STEPHEN CATHOLIC SCHOOL", "type": "Student Nutrition Site", "address": "45 GOLFDOWN DR" }, "geometry": { "type": "Point", "coordinates": [ -79.55212, 43.72224 ] } },
{ "type": "Feature", "properties": { "_id": 38425, "name": "ST. THERESA SHRINE CATHOLIC SCHOOL", "type": "Student Nutrition Site", "address": "2665 KINGSTON RD" }, "geometry": { "type": "Point", "coordinates": [ -79.24248, 43.71565 ] } },
{ "type": "Feature", "properties": { "_id": 38431, "name": "ST. TIMOTHY'S CATHOLIC SCHOOL", "type": "Student Nutrition Site", "address": "25 ROCHELLE CRES" }, "geometry": { "type": "Point", "coordinates": [ -79.35137, 43.77516 ] } },
{ "type": "Feature", "properties": { "_id": 38437, "name": "ST.ANGELA CATHOLIC SCHOOL", "type": "Student Nutrition Site", "address": "220 MOUNT OLIVE DR" }, "geometry": { "type": "Point", "coordinates": [ -79.59687, 43.75443 ] } },
{ "type": "Feature", "properties": { "_id": 38439, "name": "ST.PATRICK CATHOLIC SECONDARY SCHOOL", "type": "Student Nutrition Site", "address": "49 FELSTEAD AVE" }, "geometry": { "type": "Point", "coordinates": [ -79.32801, 43.67846 ] } },
{ "type": "Feature", "properties": { "_id": 38462, "name": "STANLEY PUBLIC SCHOOL", "type": "Student Nutrition Site", "address": "75 STANLEY RD" }, "geometry": { "type": "Point", "coordinates": [ -79.51783, 43.74184 ] } },
{ "type": "Feature", "properties": { "_id": 39399, "name": "SUBWAY ACADEMY 2", "type": "Student Nutrition Site", "address": "64 BALDWIN ST" }, "geometry": { "type": "Point", "coordinates": [ -79.39533, 43.65562 ] } },
{ "type": "Feature", "properties": { "_id": 40719, "name": "St. Agatha Before and After School Program", "type": "Student Nutrition Site", "address": "49 CATHEDRAL BLUFFS DR" }, "geometry": { "type": "Point", "coordinates": [ -79.22982, 43.72365 ] } },
{ "type": "Feature", "properties": { "_id": 40733, "name": "St. Martin De Porres School", "type": "Student Nutrition Site", "address": "230 MORNINGSIDE AVE" }, "geometry": { "type": "Point", "coordinates": [ -79.18682, 43.76714 ] } },
{ "type": "Feature", "properties": { "_id": 40734, "name": "St. Sylvester Catholic School - Snack Program", "type": "Student Nutrition Site", "address": "260 SILVER SPRINGS BLVD" }, "geometry": { "type": "Point", "coordinates": [ -79.30225, 43.80537 ] } },
{ "type": "Feature", "properties": { "_id": 40769, "name": "Stephen Leacock Breakfast Program", "type": "Student Nutrition Site", "address": "2450 BIRCHMOUNT RD" }, "geometry": { "type": "Point", "coordinates": [ -79.30086, 43.78521 ] } },
{ "type": "Feature", "properties": { "_id": 40774, "name": "Student Meal Centre - Rm 504", "type": "Student Nutrition Site", "address": "550 MARKHAM RD" }, "geometry": { "type": "Point", "coordinates": [ -79.22593, 43.75635 ] } },
{ "type": "Feature", "properties": { "_id": 41174, "name": "TAM O'SHANTER JR. P.S.", "type": "Student Nutrition Site", "address": "21 KING HENRYS BLVD" }, "geometry": { "type": "Point", "coordinates": [ -79.29766, 43.78508 ] } },
{ "type": "Feature", "properties": { "_id": 41445, "name": "TAYLOR CREEK PUBLIC SCHOOL SNACK PROGRAM", "type": "Student Nutrition Site", "address": "644 WARDEN AVE" }, "geometry": { "type": "Point", "coordinates": [ -79.27729, 43.70005 ] } },
{ "type": "Feature", "properties": { "_id": 41493, "name": "TECUMSEH SENIOR PUBLIC SCHOOL", "type": "Student Nutrition Site", "address": "720 SCARBOROUGH GOLF CLUB RD" }, "geometry": { "type": "Point", "coordinates": [ -79.21673, 43.76292 ] } },
{ "type": "Feature", "properties": { "_id": 42330, "name": "THE BREAKFAST FOR LEARNING", "type": "Student Nutrition Site", "address": "20 EVERMEDE DR" }, "geometry": { "type": "Point", "coordinates": [ -79.33144, 43.7642 ] } },
{ "type": "Feature", "properties": { "_id": 43162, "name": "THE HOLY TRINITY CATHOLIC SCHOOL", "type": "Student Nutrition Site", "address": "6 COLONEL SAMUEL SMITH PARK DR" }, "geometry": { "type": "Point", "coordinates": [ -79.51738, 43.59717 ] } },
{ "type": "Feature", "properties": { "_id": 44030, "name": "THE WATERFRONT SCHOOL", "type": "Student Nutrition Site", "address": "635 QUEENS QUAY W" }, "geometry": { "type": "Point", "coordinates": [ -79.39725, 43.63628 ] } },
{ "type": "Feature", "properties": { "_id": 44136, "name": "THISTLETOWN COLLEGIATE INSTITUTE (STUDENT NUTRITION)", "type": "Student Nutrition Site", "address": "20 FORDWICH CRES" }, "geometry": { "type": "Point", "coordinates": [ -79.56246, 43.72774 ] } },
{ "type": "Feature", "properties": { "_id": 44160, "name": "THORNCLIFFE PARK PUBLIC SCHOOL", "type": "Student Nutrition Site", "address": "80 THORNCLIFFE PARK DR" }, "geometry": { "type": "Point", "coordinates": [ -79.34344, 43.70539 ] } },
{ "type": "Feature", "properties": { "_id": 44178, "name": "THREE VALLEYS PUBLIC SCHOOL  - STUDENT NUTRITION PROGRAM", "type": "Student Nutrition Site", "address": "76 THREE VALLEYS DR, Rm-KITCHEN" }, "geometry": { "type": "Point", "coordinates": [ -79.33762, 43.75082 ] } },
{ "type": "Feature", "properties": { "_id": 45362, "name": "TOM LONGBOAT JR PUBLIC SCHOOL BREAKFAST CLIENTS", "type": "Student Nutrition Site", "address": "37 CROW TRL" }, "geometry": { "type": "Point", "coordinates": [ -79.23163, 43.81045 ] } },
{ "type": "Feature", "properties": { "_id": 45469, "name": "TOPCLIFF SCHOOL BREAKFAST PROGRAM", "type": "Student Nutrition Site", "address": "65 TOPCLIFF AVE" }, "geometry": { "type": "Point", "coordinates": [ -79.51066, 43.75569 ] } },
{ "type": "Feature", "properties": { "_id": 45471, "name": "TOPCLIFF STUDENT NUTRITION CENTRE", "type": "Student Nutrition Site", "address": "65 TOPCLIFF AVE" }, "geometry": { "type": "Point", "coordinates": [ -79.51066, 43.75569 ] } },
{ "type": "Feature", "properties": { "_id": 45962, "name": "TUMPANE PUBLIC SCHOOL", "type": "Student Nutrition Site", "address": "48 TUMPANE ST" }, "geometry": { "type": "Point", "coordinates": [ -79.50226, 43.7266 ] } },
{ "type": "Feature", "properties": { "_id": 46020, "name": "TWENTIETH STREET SCHOOL SNACK PROGRAM", "type": "Student Nutrition Site", "address": "3190 LAKE SHORE BLVD W" }, "geometry": { "type": "Point", "coordinates": [ -79.51994, 43.59799 ] } },
{ "type": "Feature", "properties": { "_id": 46224, "name": "The Elms Public School Snack Program", "type": "Student Nutrition Site", "address": "45 GOLFDOWN DR" }, "geometry": { "type": "Point", "coordinates": [ -79.55212, 43.72224 ] } },
{ "type": "Feature", "properties": { "_id": 46795, "name": "VALLEY PARK JR. HIGH", "type": "Student Nutrition Site", "address": "130 OVERLEA BLVD" }, "geometry": { "type": "Point", "coordinates": [ -79.33587, 43.71045 ] } },
{ "type": "Feature", "properties": { "_id": 46796, "name": "VALLEYFIELD JR. SCHOOL SNACK PROGRAM", "type": "Student Nutrition Site", "address": "35 SASKATOON DR" }, "geometry": { "type": "Point", "coordinates": [ -79.53822, 43.69422 ] } },
{ "type": "Feature", "properties": { "_id": 46974, "name": "VICTORIA PARK COLLEGIATE INSTITUTE - BREAKFAST CLUB", "type": "Student Nutrition Site", "address": "15 WALLINGFORD RD, Rm-121" }, "geometry": { "type": "Point", "coordinates": [ -79.32147, 43.75607 ] } },
{ "type": "Feature", "properties": { "_id": 47366, "name": "WALTER PERRY JR. P.S.", "type": "Student Nutrition Site", "address": "45 FALMOUTH AVE" }, "geometry": { "type": "Point", "coordinates": [ -79.25125, 43.73346 ] } },
{ "type": "Feature", "properties": { "_id": 47397, "name": "WARREN PARK JUNIOR PUBLIC SCHOOL", "type": "Student Nutrition Site", "address": "135 VARSITY RD" }, "geometry": { "type": "Point", "coordinates": [ -79.49944, 43.66285 ] } },
{ "type": "Feature", "properties": { "_id": 47628, "name": "WEST END ALTERNATIVE SECONDARY SCHOOL SNP", "type": "Student Nutrition Site", "address": "777 BLOOR ST W" }, "geometry": { "type": "Point", "coordinates": [ -79.41984, 43.66244 ] } },
{ "type": "Feature", "properties": { "_id": 47633, "name": "WEST GLEN JUNIOR SCHOOL", "type": "Student Nutrition Site", "address": "47 COWLEY AVE" }, "geometry": { "type": "Point", "coordinates": [ -79.56029, 43.65084 ] } },
{ "type": "Feature", "properties": { "_id": 47636, "name": "WEST HILL COLLEGIATE - MORNING MEAL PROGRAM", "type": "Student Nutrition Site", "address": "350 MORNINGSIDE AVE" }, "geometry": { "type": "Point", "coordinates": [ -79.19059, 43.77568 ] } },
{ "type": "Feature", "properties": { "_id": 47640, "name": "WEST HUMBER COLLEGIATE INSTITUTE", "type": "Student Nutrition Site", "address": "1675 MARTIN GROVE RD" }, "geometry": { "type": "Point", "coordinates": [ -79.58671, 43.73093 ] } },
{ "type": "Feature", "properties": { "_id": 47680, "name": "WESTMOUNT JUNIOR PUBLIC SCHOOL", "type": "Student Nutrition Site", "address": "95 CHAPMAN RD" }, "geometry": { "type": "Point", "coordinates": [ -79.51966, 43.6891 ] } },
{ "type": "Feature", "properties": { "_id": 47690, "name": "WESTON COLLEGIATE INSTITUTE - STUDENT NUTRITION PROGRAM", "type": "Student Nutrition Site", "address": "100 PINE ST" }, "geometry": { "type": "Point", "coordinates": [ -79.50943, 43.70382 ] } },
{ "type": "Feature", "properties": { "_id": 47737, "name": "WESTWAY JR. SCHOOL", "type": "Student Nutrition Site", "address": "25 POYNTER DR" }, "geometry": { "type": "Point", "coordinates": [ -79.549, 43.69083 ] } },
{ "type": "Feature", "properties": { "_id": 47951, "name": "WILLIAM G. MILLER PS - SNP", "type": "Student Nutrition Site", "address": "60 BENNETT RD, Rm-STAFF ROOM" }, "geometry": { "type": "Point", "coordinates": [ -79.16542, 43.76853 ] } },
{ "type": "Feature", "properties": { "_id": 47967, "name": "WILLOW PARK JUNIOR SNACK PROGRAM", "type": "Student Nutrition Site", "address": "45 WINDOVER DR" }, "geometry": { "type": "Point", "coordinates": [ -79.20958, 43.76121 ] } },
{ "type": "Feature", "properties": { "_id": 47971, "name": "WILLOWDALE MIDDLE SCHOOL", "type": "Student Nutrition Site", "address": "225 SENLAC RD" }, "geometry": { "type": "Point", "coordinates": [ -79.42609, 43.76978 ] } },
{ "type": "Feature", "properties": { "_id": 48030, "name": "WINCHESTER PUBLIC SCHOOL", "type": "Student Nutrition Site", "address": "15 PROSPECT ST" }, "geometry": { "type": "Point", "coordinates": [ -79.37111, 43.66656 ] } },
{ "type": "Feature", "properties": { "_id": 48118, "name": "WINONA PUBLIC SCHOOL CAFETERIA", "type": "Student Nutrition Site", "address": "101 WINONA DR" }, "geometry": { "type": "Point", "coordinates": [ -79.43086, 43.67701 ] } },
{ "type": "Feature", "properties": { "_id": 48129, "name": "WOBURN JUNIOR P.S. SNACK PROGRAM", "type": "Student Nutrition Site", "address": "40 DORMINGTON DR" }, "geometry": { "type": "Point", "coordinates": [ -79.227, 43.7795 ] } },
{ "type": "Feature", "properties": { "_id": 48328, "name": "Wandering Spirit School", "type": "Student Nutrition Site", "address": "16 PHIN AVE" }, "geometry": { "type": "Point", "coordinates": [ -79.33664, 43.67915 ] } },
{ "type": "Feature", "properties": { "_id": 48375, "name": "Wexford Collegiate Fresh Start Program", "type": "Student Nutrition Site", "address": "1176 PHARMACY AVE" }, "geometry": { "type": "Point", "coordinates": [ -79.3068, 43.74617 ] } },
{ "type": "Feature", "properties": { "_id": 48392, "name": "Winston Churchill Collegiate Institute", "type": "Student Nutrition Site", "address": "2239 LAWRENCE AVE E" }, "geometry": { "type": "Point", "coordinates": [ -79.27815, 43.74791 ] } },
{ "type": "Feature", "properties": { "_id": 48490, "name": "Y.M.C.A SCHOOL AGE PROGRAM", "type": "Student Nutrition Site", "address": "225 WELLESWORTH DR" }, "geometry": { "type": "Point", "coordinates": [ -79.57672, 43.65665 ] } },
{ "type": "Feature", "properties": { "_id": 48791, "name": "YORK HUMBER HIGH SCHOOL", "type": "Student Nutrition Site", "address": "100 EMMETT AVE" }, "geometry": { "type": "Point", "coordinates": [ -79.50523, 43.68801 ] } },
{ "type": "Feature", "properties": { "_id": 48793, "name": "YORK MEMORIAL COLLEGIATE INSTITUTE", "type": "Student Nutrition Site", "address": "1700 KEELE ST" }, "geometry": { "type": "Point", "coordinates": [ -79.4737, 43.68456 ] } },
{ "type": "Feature", "properties": { "_id": 48827, "name": "YORKDALE ADULT LEARNING CENTRE & SECONDARY SCHOOL", "type": "Student Nutrition Site", "address": "38 ORFUS RD" }, "geometry": { "type": "Point", "coordinates": [ -79.46063, 43.71993 ] } },
{ "type": "Feature", "properties": { "_id": 48840, "name": "YORKVIEW PUBLIC SCHOOL", "type": "Student Nutrition Site", "address": "130 YORKVIEW DR" }, "geometry": { "type": "Point", "coordinates": [ -79.43557, 43.77258 ] } },
{ "type": "Feature", "properties": { "_id": 48844, "name": "YORKWOODS P.S. SNACK PROGRAM", "type": "Student Nutrition Site", "address": "25 YORKWOODS GT" }, "geometry": { "type": "Point", "coordinates": [ -79.51389, 43.75067 ] } },
{ "type": "Feature", "properties": { "_id": 49322, "name": "Ã‰COLE SECONDAIRE TORONTO OUEST- SNP", "type": "Student Nutrition Site", "address": "330 LANSDOWNE AVE" }, "geometry": { "type": "Point", "coordinates": [ -79.44124, 43.65239 ] } }
]
}
