{
"type": "FeatureCollection",
"name": "student_nutrition_sites",
"crs": { "type": "name", "properties": { "name": "urn:ogc:def:crs:OGC:1.3:CRS84" } },
"features": [
{ "type": "Feature", "properties": { "_id": 1270, "name": "ALBION BOYS & GIRLS CLUB", "type": "Student Nutrition Site", "address": "2533 KIPLING AVE, ROOM-225" }, "geometry": { "type": "Point", "coordinates": [ -79.58239, 43.74494 ] } },
{ "type": "Feature", "properties": { "_id": 4248, "name": "BGCTK (TORONTO KIWANIS BOYS & GIRLS CLUB)", "type": "Student Nutrition Site", "address": "935 DUNDAS ST E, Rm-155" }, "geometry": { "type": "Point", "coordinates": [ -79.34869, 43.66209 ] } },
{ "type": "Feature", "properties": { "_id": 5171, "name": "BRAEBURN JUNIOR SCHOOL STUDENT NUTRITION PROGRAM", "type": "Student Nutrition Site", "address": "15 TANDRIDGE CRES" }, "geometry": { "type": "Point", "coordinates": [ -79.54887, 43.72804 ] } },
{ "type": "Feature", "properties": { "_id": 5336, "name": "BROOK'S BISTRO STUDENT NUTRITION PROGRAM", "type": "Student Nutrition Site", "address": "155 HILDA AVE" }, "geometry": { "type": "Point", "coordinates": [ -79.42625, 43.79356 ] } },
{ "type": "Feature", "properties": { "_id": 5343, "name": "BROOKVIEW NUTRITION PROGRAM", "type": "Student Nutrition Site", "address": "4505 JANE ST" }, "geometry": { "type": "Point", "coordinates": [ -79.51725, 43.76747 ] } },
{ "type": "Feature", "properties": { "_id": 5375, "name": "BRUCE SCHOOL NUTRITION PROGRAM", "type": "Student Nutrition Site", "address": "51 LARCHMOUNT AVE" }, "geometry": { "type": "Point", "coordinates": [ -79.33334, 43.66104 ] } },
{ "type": "Feature", "properties": { "_id": 5684, "name": "BURNHAMTHORPE CI STUDENT NUTRITION PROGRAM", "type": "Student Nutrition Site", "address": "500 THE EAST MALL" }, "geometry": { "type": "Point", "coordinates": [ -79.56033, 43.64855 ] } },
{ "type": "Feature", "properties": { "_id": 6075, "name": "Boy's and Girl's Club After School", "type": "Student Nutrition Site", "address": "300 KANE AVE" }, "geometry": { "type": "Point", "coordinates": [ -79.46942, 43.68726 ] } },
{ "type": "Feature", "properties": { "_id": 6078, "name": "Braeburnwoods Kindergarten Before & After School Program", "type": "Student Nutrition Site", "address": "15 TANDRIDGE CRES" }, "geometry": { "type": "Point", "coordinates": [ -79.54887, 43.72804 ] } },
{ "type": "Feature", "properties": { "_id": 6500, "name": "CALICO BREAKFAST CLUB", "type": "Student Nutrition Site", "address": "35 CALICO DR" }, "geometry": { "type": "Point", "coordinates": [ -79.5036, 43.73791 ] } },
{ "type": "Feature", "properties": { "_id": 7024, "name": "CARLTON VILLAGE PUBLIC SCHOOL - SNP", "type": "Student Nutrition Site", "address": "315 OSLER ST, Unit-2" }, "geometry": { "type": "Point", "coordinates": [ -79.46003, 43.67236 ] } },
{ "type": "Feature", "properties": { "_id": 7188, "name": "CEDAR DRIVE SNACK PROGRAM", "type": "Student Nutrition Site", "address": "21 GATESVIEW AVE" }, "geometry": { "type": "Point", "coordinates": [ -79.21505, 43.74586 ] } },
{ "type": "Feature", "properties": { "_id": 7731, "name": "CHESTER LE JR. P.S. SNACK PROGRAM", "type": "Student Nutrition Site", "address": "201 CHESTER LE BLVD" }, "geometry": { "type": "Point", "coordinates": [ -79.3311, 43.7986 ] } },
{ "type": "Feature", "properties": { "_id": 8359, "name": "CHURCH ST SCHOOL NUTRITION PROGRAM", "type": "Student Nutrition Site", "address": "83 ALEXANDER ST" }, "geometry": { "type": "Point", "coordinates": [ -79.37918, 43.66362 ] } },
{ "type": "Feature", "properties": { "_id": 9279, "name": "CORDELLA JR. PUBLIC SCHOOL LUNCH PROGRAM", "type": "Student Nutrition Site", "address": "175 CORDELLA AVE" }, "geometry": { "type": "Point", "coordinates": [ -79.48759, 43.67908 ] } },
{ "type": "Feature", "properties": { "_id": 9291, "name": "CORNELL JUNIOR P.S.SNACK PROGRAM", "type": "Student Nutrition Site", "address": "61 HOLMFIRTH TER" }, "geometry": { "type": "Point", "coordinates": [ -79.21804, 43.7594 ] } },
{ "type": "Feature", "properties": { "_id": 9312, "name": "CORVETTE JR. PUBLIC SCHOOL MEAL PROGRAM", "type": "Student Nutrition Site", "address": "30 CORVETTE AVE" }, "geometry": { "type": "Point", "coordinates": [ -79.26216, 43.72649 ] } },
{ "type": "Feature", "properties": { "_id": 9825, "name": "Clairlee Public School Snack Program", "type": "Student Nutrition Site", "address": "25 ROSALIND CRES" }, "geometry": { "type": "Point", "coordinates": [ -79.29619, 43.7166 ] } },
{ "type": "Feature", "properties": { "_id": 10396, "name": "DAYSTROM PUBLIC SCHOOL (SNACK PROGRAM)", "type": "Student Nutrition Site", "address": "25 DAYSTROM DR" }, "geometry": { "type": "Point", "coordinates": [ -79.54697, 43.74796 ] } },
{ "type": "Feature", "properties": { "_id": 10858, "name": "DIXON GROVE JUNIOR MIDDLE SCHOOL SCHOOL SNACK PROGRAM", "type": "Student Nutrition Site", "address": "315 THE WESTWAY" }, "geometry": { "type": "Point", "coordinates": [ -79.55654, 43.68528 ] } },
{ "type": "Feature", "properties": { "_id": 11164, "name": "DON MONTGOMERY COMMUNITY CENTRE - TEACHING KITCHEN", "type": "Student Nutrition Site", "address": "2467 EGLINTON AVE E" }, "geometry": { "type": "Point", "coordinates": [ -79.26167, 43.73267 ] } },
{ "type": "Feature", "properties": { "_id": 11932, "name": "EASTVIEW JR. P.S. SNACK PROGRAM", "type": "Student Nutrition Site", "address": "20 WALDOCK ST" }, "geometry": { "type": "Point", "coordinates": [ -79.19134, 43.75907 ] } },
{ "type": "Feature", "properties": { "_id": 12052, "name": "ECOLE ELEMENTAIRE CATHOLIQUE DU SACRE-COEUR SNP", "type": "Student Nutrition Site", "address": "98 ESSEX ST" }, "geometry": { "type": "Point", "coordinates": [ -79.42414, 43.66788 ] } },
{ "type": "Feature", "properties": { "_id": 12058, "name": "ECOLE SECONDAIRE CATHOLIQUE SAINT-FRERE-ANDRE SNP", "type": "Student Nutrition Site", "address": "330 LANSDOWNE AVE" }, "geometry": { "type": "Point", "coordinates": [ -79.44124, 43.65239 ] } },
{ "type": "Feature", "properties": { "_id": 12423, "name": "ELIA JUNIOR MS STUDENT SNACK PROGRAM", "type": "Student Nutrition Site", "address": "215 SENTINEL RD" }, "geometry": { "type": "Point", "coordinates": [ -79.49846, 43.75381 ] } },
{ "type": "Feature", "properties": { "_id": 12454, "name": "ELMBANK JUNIOR MIDDLE SCHOOL (STUDENT NUTRITION)", "type": "Student Nutrition Site", "address": "10 PITTSBORO DR" }, "geometry": { "type": "Point", "coordinates": [ -79.59005, 43.73651 ] } },
{ "type": "Feature", "properties": { "_id": 12978, "name": "FAIRBANK MEMORIAL BREAKFAST CLUB", "type": "Student Nutrition Site", "address": "555 HARVIE AVE" }, "geometry": { "type": "Point", "coordinates": [ -79.45541, 43.69171 ] } },
{ "type": "Feature", "properties": { "_id": 14970, "name": "GALLOWAY ROAD PUBLIC SCHOOL SNACK PROGRAM", "type": "Student Nutrition Site", "address": "192 GALLOWAY RD" }, "geometry": { "type": "Point", "coordinates": [ -79.19392, 43.76018 ] } },
{ "type": "Feature", "properties": { "_id": 15057, "name": "GATEWAY BLVD PUBLIC SCHOOL", "type": "Student Nutrition Site", "address": "55 GATEWAY BLVD" }, "geometry": { "type": "Point", "coordinates": [ -79.33101, 43.71173 ] } },
{ "type": "Feature", "properties": { "_id": 15174, "name": "GENERAL BROCK SNACK PROG", "type": "Student Nutrition Site", "address": "140 CHESTNUT CRES" }, "geometry": { "type": "Point", "coordinates": [ -79.27487, 43.71842 ] } },
{ "type": "Feature", "properties": { "_id": 15208, "name": "GEORGE P. MACKIE JUNIOR PS - SNP", "type": "Student Nutrition Site", "address": "60 HEATHFIELD DR" }, "geometry": { "type": "Point", "coordinates": [ -79.212, 43.73934 ] } },
{ "type": "Feature", "properties": { "_id": 15480, "name": "GLAMORGAN JR. P.S. - SNACK PROGRAM", "type": "Student Nutrition Site", "address": "51 ANTRIM CRES" }, "geometry": { "type": "Point", "coordinates": [ -79.28956, 43.77131 ] } },
{ "type": "Feature", "properties": { "_id": 15496, "name": "GLEN RAVINE JUNIOR BREAKFAST CLUB", "type": "Student Nutrition Site", "address": "11 GADSBY DR" }, "geometry": { "type": "Point", "coordinates": [ -79.25406, 43.73823 ] } },
{ "type": "Feature", "properties": { "_id": 16148, "name": "GREENHOLME JUNIOR MIDDLE SCHOOL SNACK PROGRAM", "type": "Student Nutrition Site", "address": "10 JAMESTOWN CRES" }, "geometry": { "type": "Point", "coordinates": [ -79.58291, 43.73508 ] } },
{ "type": "Feature", "properties": { "_id": 16189, "name": "GREENWOOD STUDENT NUTRITION", "type": "Student Nutrition Site", "address": "800 GREENWOOD AVE" }, "geometry": { "type": "Point", "coordinates": [ -79.33409, 43.68285 ] } },
{ "type": "Feature", "properties": { "_id": 16201, "name": "GREY OWL JUNIOR SNACK PROGRAM", "type": "Student Nutrition Site", "address": "150 WICKSON TRL" }, "geometry": { "type": "Point", "coordinates": [ -79.2133, 43.804 ] } },
{ "type": "Feature", "properties": { "_id": 16317, "name": "GUILDWOOD JR. P.S. SNACK PROGRAM", "type": "Student Nutrition Site", "address": "225 LIVINGSTON RD" }, "geometry": { "type": "Point", "coordinates": [ -79.19999, 43.75083 ] } },
{ "type": "Feature", "properties": { "_id": 16532, "name": "Golf Road School SNP", "type": "Student Nutrition Site", "address": "730 SCARBOROUGH GOLF CLUB RD" }, "geometry": { "type": "Point", "coordinates": [ -79.21697, 43.76367 ] } },
{ "type": "Feature", "properties": { "_id": 16588, "name": "H. A. HALBERT JR. PS - SNP", "type": "Student Nutrition Site", "address": "31 MCCOWAN RD" }, "geometry": { "type": "Point", "coordinates": [ -79.23174, 43.72766 ] } },
{ "type": "Feature", "properties": { "_id": 16589, "name": "H.J. ALEXANDER - NUTRITION PROGRAM", "type": "Student Nutrition Site", "address": "30 KING ST" }, "geometry": { "type": "Point", "coordinates": [ -79.52055, 43.7025 ] } },
{ "type": "Feature", "properties": { "_id": 17546, "name": "HILLTOP MIDDLE SCHOOL STUDENT NUTRITION", "type": "Student Nutrition Site", "address": "35 TREHORNE DR" }, "geometry": { "type": "Point", "coordinates": [ -79.53307, 43.68947 ] } },
{ "type": "Feature", "properties": { "_id": 17689, "name": "HOLY CHILD CATHOLIC SCHOOL(STUDENT NUTRITION)", "type": "Student Nutrition Site", "address": "850 HUMBERWOOD BLVD" }, "geometry": { "type": "Point", "coordinates": [ -79.61919, 43.72889 ] } },
{ "type": "Feature", "properties": { "_id": 17709, "name": "HOLY ROSARY CATHOLIC SCHOOL, STUDENT NUTRITION PROGRAM", "type": "Student Nutrition Site", "address": "308 TWEEDSMUIR AVE" }, "geometry": { "type": "Point", "coordinates": [ -79.41405, 43.68506 ] } },
{ "type": "Feature", "properties": { "_id": 18110, "name": "HUMBER SUMMIT MIDDLE SCHOOL STUDENT NUTRITION PROGRAM", "type": "Student Nutrition Site", "address": "60 PEARLDALE AVE" }, "geometry": { "type": "Point", "coordinates": [ -79.56453, 43.75057 ] } },
{ "type": "Feature", "properties": { "_id": 18123, "name": "HUMBERWOOD DOWNS JR MIDDLE ACADEMY (STUDENT NUTRITION)", "type": "Student Nutrition Site", "address": "850 HUMBERWOOD BLVD" }, "geometry": { "type": "Point", "coordinates": [ -79.61919, 43.72889 ] } },
{ "type": "Feature", "properties": { "_id": 18318, "name": "Heather Heights P.S. East Scarborough Boys & Girls Club", "type": "Student Nutrition Site", "address": "80 SLAN AVE" }, "geometry": { "type": "Point", "coordinates": [ -79.21507, 43.77516 ] } },
{ "type": "Feature", "properties": { "_id": 18340, "name": "Holy Spriit Catholic School Snack Program", "type": "Student Nutrition Site", "address": "3530 SHEPPARD AVE E" }, "geometry": { "type": "Point", "coordinates": [ -79.3031, 43.78122 ] } },
{ "type": "Feature", "properties": { "_id": 18562, "name": "IMMACULATE CONCEPTION CATHOLIC SCHOOL - STUDENT NUTRITION PROGRAM", "type": "Student Nutrition Site", "address": "23 COMAY RD" }, "geometry": { "type": "Point", "coordinates": [ -79.47782, 43.69769 ] } },
{ "type": "Feature", "properties": { "_id": 18894, "name": "IONVIEW PUBLIC SCHOOL SNACK PROGRAM", "type": "Student Nutrition Site", "address": "90 IONVIEW RD" }, "geometry": { "type": "Point", "coordinates": [ -79.2747, 43.73762 ] } },
{ "type": "Feature", "properties": { "_id": 19194, "name": "J.R. WILCOX PS BREAKFAST PROGRAM", "type": "Student Nutrition Site", "address": "231 AVA RD" }, "geometry": { "type": "Point", "coordinates": [ -79.43631, 43.69496 ] } },
{ "type": "Feature", "properties": { "_id": 19300, "name": "JAMES CARDINAL MCGUIGAN BREAKFAST PROGRAM", "type": "Student Nutrition Site", "address": "1440 FINCH AVE W" }, "geometry": { "type": "Point", "coordinates": [ -79.4938, 43.7633 ] } },
{ "type": "Feature", "properties": { "_id": 19303, "name": "JAMES S. BELL KINDER - Student Nutrition Program", "type": "Student Nutrition Site", "address": "90 THIRTY FIRST ST" }, "geometry": { "type": "Point", "coordinates": [ -79.53019, 43.59436 ] } },
{ "type": "Feature", "properties": { "_id": 19777, "name": "JOHN ENGLISH SCHOOL STUDENT NUTRITION SITE", "type": "Student Nutrition Site", "address": "95 MIMICO AVE" }, "geometry": { "type": "Point", "coordinates": [ -79.49442, 43.61186 ] } },
{ "type": "Feature", "properties": { "_id": 19886, "name": "JOSEPH BRANT PS - SNP", "type": "Student Nutrition Site", "address": "270 MANSE RD" }, "geometry": { "type": "Point", "coordinates": [ -79.17574, 43.76698 ] } },
{ "type": "Feature", "properties": { "_id": 21312, "name": "KINGSVIEW VILLAGE COMM. SCHOOL SNACK PROGRAM", "type": "Student Nutrition Site", "address": "1 YORK RD" }, "geometry": { "type": "Point", "coordinates": [ -79.55079, 43.69788 ] } },
{ "type": "Feature", "properties": { "_id": 21504, "name": "KNOB HILL PS - SNP", "type": "Student Nutrition Site", "address": "25 SEMINOLE AVE" }, "geometry": { "type": "Point", "coordinates": [ -79.24979, 43.7453 ] } },
{ "type": "Feature", "properties": { "_id": 23017, "name": "LESLIEVILLE PUBLIC SCHOOL STUDENT NUTRITION SITE", "type": "Student Nutrition Site", "address": "254 LESLIE ST" }, "geometry": { "type": "Point", "coordinates": [ -79.33241, 43.66733 ] } },
{ "type": "Feature", "properties": { "_id": 23836, "name": "LUCY MCCORMICK SENIOR SCHOOL SNACK PROGRAM", "type": "Student Nutrition Site", "address": "2717 DUNDAS ST W" }, "geometry": { "type": "Point", "coordinates": [ -79.46018, 43.66464 ] } },
{ "type": "Feature", "properties": { "_id": 24768, "name": "MAPLEWOOD STUDENT NUTRITION PROGRAM", "type": "Student Nutrition Site", "address": "120 GALLOWAY RD" }, "geometry": { "type": "Point", "coordinates": [ -79.1949, 43.75891 ] } },
{ "type": "Feature", "properties": { "_id": 25094, "name": "MASON ROAD JUNIOR SNACK PROGRAM", "type": "Student Nutrition Site", "address": "78 MASON RD" }, "geometry": { "type": "Point", "coordinates": [ -79.22569, 43.73926 ] } },
{ "type": "Feature", "properties": { "_id": 25741, "name": "MELODY VILLAGE JUNIOR SCHOOL(STUDENT NUTRITION)", "type": "Student Nutrition Site", "address": "520 SILVERSTONE DR" }, "geometry": { "type": "Point", "coordinates": [ -79.59485, 43.73814 ] } },
{ "type": "Feature", "properties": { "_id": 26109, "name": "MILITARY TRAIL P.S. SNACK PROGRAM & BREAKFAST", "type": "Student Nutrition Site", "address": "701 MILITARY TRL" }, "geometry": { "type": "Point", "coordinates": [ -79.19712, 43.78912 ] } },
{ "type": "Feature", "properties": { "_id": 26547, "name": "MONARCH PARK COLLEGIATE STUDENT NUTRITION PROGRAM", "type": "Student Nutrition Site", "address": "1 HANSON ST" }, "geometry": { "type": "Point", "coordinates": [ -79.32277, 43.67928 ] } },
{ "type": "Feature", "properties": { "_id": 26704, "name": "MONSIGNOR JOHN CORRIGAN CATHOLIC SCHOOL(STUDENT NUTR)", "type": "Student Nutrition Site", "address": "100 ROYALCREST RD" }, "geometry": { "type": "Point", "coordinates": [ -79.60502, 43.75158 ] } },
{ "type": "Feature", "properties": { "_id": 26760, "name": "MONTROSE JUNIOR PUBLIC SCHOOL SCHOOL NOURISHMENT", "type": "Student Nutrition Site", "address": "301 MONTROSE AVE" }, "geometry": { "type": "Point", "coordinates": [ -79.41885, 43.65869 ] } },
{ "type": "Feature", "properties": { "_id": 27539, "name": "Malvern JPS Student Nutrition Program", "type": "Student Nutrition Site", "address": "70 MAMMOTH HALL TRL" }, "geometry": { "type": "Point", "coordinates": [ -79.23315, 43.79787 ] } },
{ "type": "Feature", "properties": { "_id": 28563, "name": "NORTH ALBION COLLEGIATE INSTITUTE (SNP)", "type": "Student Nutrition Site", "address": "2580 KIPLING AVE" }, "geometry": { "type": "Point", "coordinates": [ -79.58515, 43.74715 ] } },
{ "type": "Feature", "properties": { "_id": 28579, "name": "NORTH KIPLING JR. MIDDLE SCHOOL BREAKFAST PROGRAM", "type": "Student Nutrition Site", "address": "2 ROWNTREE RD" }, "geometry": { "type": "Point", "coordinates": [ -79.5849, 43.75177 ] } },
{ "type": "Feature", "properties": { "_id": 28580, "name": "NORTH KIPLING JUNIOR MIDDLE SCHOOL NUTRITION PROGRAM", "type": "Student Nutrition Site", "address": "2 ROWNTREE RD" }, "geometry": { "type": "Point", "coordinates": [ -79.5849, 43.75177 ] } },
{ "type": "Feature", "properties": { "_id": 28836, "name": "NUTRITION INTERVENTION CENTRE KITCHEN - 2nd Floor", "type": "Student Nutrition Site", "address": "6 QUEENS PARK CRES W" }, "geometry": { "type": "Point", "coordinates": [ -79.3915, 43.66053 ] } },
{ "type": "Feature", "properties": { "_id": 28941, "name": "North Bridlewood Jr. P.S.-Snack Program", "type": "Student Nutrition Site", "address": "50 COLLINGSBROOK BLVD" }, "geometry": { "type": "Point", "coordinates": [ -79.31859, 43.78892 ] } },
{ "type": "Feature", "properties": { "_id": 29006, "name": "OAKWOOD COLLEGIATE INSTITUTE (BREAKFAST PROGRAM)", "type": "Student Nutrition Site", "address": "991 ST CLAIR AVE W" }, "geometry": { "type": "Point", "coordinates": [ -79.43638, 43.67866 ] } },
{ "type": "Feature", "properties": { "_id": 29579, "name": "OUR LADY OF VICTORY BEFORE AND AFTER SNACK PROGRAM", "type": "Student Nutrition Site", "address": "70 GUESTVILLE AVE" }, "geometry": { "type": "Point", "coordinates": [ -79.49032, 43.68333 ] } },
{ "type": "Feature", "properties": { "_id": 30418, "name": "PAULINE JOHNSON JR. P.S. - SNACK PROGRAM", "type": "Student Nutrition Site", "address": "35 DUNMURRAY BLVD" }, "geometry": { "type": "Point", "coordinates": [ -79.30357, 43.78514 ] } },
{ "type": "Feature", "properties": { "_id": 30624, "name": "PERTH AVENUE JR. PUBLIC SCHOOL (SNACK)", "type": "Student Nutrition Site", "address": "14 RUSKIN AVE" }, "geometry": { "type": "Point", "coordinates": [ -79.45242, 43.66284 ] } },
{ "type": "Feature", "properties": { "_id": 33860, "name": "RANCHDALE PUBLIC SCHOOL  STUDENT NUTRITION PROGRAM", "type": "Student Nutrition Site", "address": "60 RANCHDALE CRES" }, "geometry": { "type": "Point", "coordinates": [ -79.32329, 43.75247 ] } },
{ "type": "Feature", "properties": { "_id": 34560, "name": "RODEN JUNIOR PUBLIC SCHOOL/BREAKFAST CLUB", "type": "Student Nutrition Site", "address": "151 HIAWATHA RD" }, "geometry": { "type": "Point", "coordinates": [ -79.32308, 43.67388 ] } },
{ "type": "Feature", "properties": { "_id": 35113, "name": "RUNNYMEDE COLLEGIATE INSTITUTION - BREAKFAST PROGRAM", "type": "Student Nutrition Site", "address": "569 JANE ST" }, "geometry": { "type": "Point", "coordinates": [ -79.48981, 43.66354 ] } },
{ "type": "Feature", "properties": { "_id": 35225, "name": "Regent Heights Public School Student Nutrition Program", "type": "Student Nutrition Site", "address": "555 PHARMACY AVE" }, "geometry": { "type": "Point", "coordinates": [ -79.28891, 43.70709 ] } },
{ "type": "Feature", "properties": { "_id": 35619, "name": "SAMUEL HEARNE M.S. SCHOOL NUTRITION PROGRAM", "type": "Student Nutrition Site", "address": "21 NEWPORT AVE" }, "geometry": { "type": "Point", "coordinates": [ -79.28368, 43.69525 ] } },
{ "type": "Feature", "properties": { "_id": 36245, "name": "SECOND STREET SCHOOL SNACK PROGRAM", "type": "Student Nutrition Site", "address": "71 SECOND ST" }, "geometry": { "type": "Point", "coordinates": [ -79.49977, 43.60368 ] } },
{ "type": "Feature", "properties": { "_id": 36375, "name": "SEVENTH STREET JUNIOR SCHOOL SNACK PROGRAM", "type": "Student Nutrition Site", "address": "101 SEVENTH ST" }, "geometry": { "type": "Point", "coordinates": [ -79.50399, 43.59972 ] } },
{ "type": "Feature", "properties": { "_id": 37231, "name": "SILVER SPRINGS MORNING BREAKFAST PROGRAM", "type": "Student Nutrition Site", "address": "222 SILVER SPRINGS BLVD" }, "geometry": { "type": "Point", "coordinates": [ -79.30238, 43.80444 ] } },
{ "type": "Feature", "properties": { "_id": 37238, "name": "SILVERTHORN COLLEGIATE INSTITUTE- STUDENT NUTRITION PRGM", "type": "Student Nutrition Site", "address": "291 MILL RD" }, "geometry": { "type": "Point", "coordinates": [ -79.58039, 43.63784 ] } },
{ "type": "Feature", "properties": { "_id": 37574, "name": "SNACKS FOR SCHOOL SUCCESS EATONVILLE JR PUBLIC SCHOOL", "type": "Student Nutrition Site", "address": "15 ROSSBURN DR" }, "geometry": { "type": "Point", "coordinates": [ -79.56701, 43.63832 ] } },
{ "type": "Feature", "properties": { "_id": 38089, "name": "ST BERNARD CATHOLIC SCHOOL STUDENT NUTRITION PROGRM", "type": "Student Nutrition Site", "address": "12 DUCKWORTH ST" }, "geometry": { "type": "Point", "coordinates": [ -79.50061, 43.70251 ] } },
{ "type": "Feature", "properties": { "_id": 38105, "name": "ST FRANCIS XAVIER BEFORE & AFTER PROGRAM", "type": "Student Nutrition Site", "address": "53 GRACEFIELD AVE, Room-103" }, "geometry": { "type": "Point", "coordinates": [ -79.48341, 43.71086 ] } },
{ "type": "Feature", "properties": { "_id": 38121, "name": "ST JOSEPH'S CATHOLIC SCHOOL STUDENT NUTRITION PROGRAM", "type": "Student Nutrition Site", "address": "176 LESLIE ST" }, "geometry": { "type": "Point", "coordinates": [ -79.33189, 43.66582 ] } },
{ "type": "Feature", "properties": { "_id": 38125, "name": "ST JUDE STUDENT NUTRITION PROGRAM", "type": "Student Nutrition Site", "address": "3251 WESTON RD, Bldg--" }, "geometry": { "type": "Point", "coordinates": [ -79.53926, 43.74049 ] } },
{ "type": "Feature", "properties": { "_id": 38134, "name": "ST MARGARET'S P.S.- SNACK PROGRAM", "type": "Student Nutrition Site", "address": "235 GALLOWAY RD" }, "geometry": { "type": "Point", "coordinates": [ -79.19594, 43.76827 ] } },
{ "type": "Feature", "properties": { "_id": 38190, "name": "ST. BASIL THE GREAT COLLEGE SCHOOL - NUTRITION PROGRAM", "type": "Student Nutrition Site", "address": "20 STARVIEW LANE" }, "geometry": { "type": "Point", "coordinates": [ -79.534, 43.72723 ] } },
{ "type": "Feature", "properties": { "_id": 38202, "name": "ST. BRUNO/ ST. RAYMOND CATHOLIC SCHOOL SNACK PROGRAM", "type": "Student Nutrition Site", "address": "402 MELITA CRES" }, "geometry": { "type": "Point", "coordinates": [ -79.42707, 43.67325 ] } },
{ "type": "Feature", "properties": { "_id": 38233, "name": "ST. FIDELIS CATHOLIC SCHOOL STUDENT NUTRITION PROGRAM", "type": "Student Nutrition Site", "address": "9 BANNERMAN ST" }, "geometry": { "type": "Point", "coordinates": [ -79.48495, 43.7173 ] } },
{ "type": "Feature", "properties": { "_id": 38243, "name": "ST. FRANCIS XAVIER - STUDENT NUTRITION SNACK PROGRAM", "type": "Student Nutrition Site", "address": "53 GRACEFIELD AVE" }, "geometry": { "type": "Point", "coordinates": [ -79.48341, 43.71086 ] } },
{ "type": "Feature", "properties": { "_id": 38373, "name": "ST. MICHAEL STUDENT NUTRITION PROGRAM", "type": "Student Nutrition Site", "address": "50 GEORGE ST S" }, "geometry": { "type": "Point", "coordinates": [ -79.49454, 43.60959 ] } },
{ "type": "Feature", "properties": { "_id": 38389, "name": "ST. MONICA'S STUDENT NUTRITON PROGRAM", "type": "Student Nutrition Site", "address": "14 BROADWAY AVE, Flr-3 (Room 309)" }, "geometry": { "type": "Point", "coordinates": [ -79.39763, 43.71017 ] } },
{ "type": "Feature", "properties": { "_id": 38398, "name": "ST. PAUL STUDENT NUTRITION PROGRAM", "type": "Student Nutrition Site", "address": "80 SACKVILLE ST" }, "geometry": { "type": "Point", "coordinates": [ -79.36174, 43.6555 ] } },
{ "type": "Feature", "properties": { "_id": 38413, "name": "ST. ROSE OF LIMA BREAKFAST CLUB", "type": "Student Nutrition Site", "address": "3216 LAWRENCE AVE E" }, "geometry": { "type": "Point", "coordinates": [ -79.24156, 43.75702 ] } },
{ "type": "Feature", "properties": { "_id": 40719, "name": "St. Agatha Before and After School Program", "type": "Student Nutrition Site", "address": "49 CATHEDRAL BLUFFS DR" }, "geometry": { "type": "Point", "coordinates": [ -79.22982, 43.72365 ] } },
{ "type": "Feature", "properties": { "_id": 40734, "name": "St. Sylvester Catholic School - Snack Program", "type": "Student Nutrition Site", "address": "260 SILVER SPRINGS BLVD" }, "geometry": { "type": "Point", "coordinates": [ -79.30225, 43.80537 ] } },
{ "type": "Feature", "properties": { "_id": 40769, "name": "Stephen Leacock Breakfast Program", "type": "Student Nutrition Site", "address": "2450 BIRCHMOUNT RD" }, "geometry": { "type": "Point", "coordinates": [ -79.30086, 43.78521 ] } },
{ "type": "Feature", "properties": { "_id": 40774, "name": "Student Meal Centre - Rm 504", "type": "Student Nutrition Site", "address": "550 MARKHAM RD" }, "geometry": { "type": "Point", "coordinates": [ -79.22593, 43.75635 ] } },
{ "type": "Feature", "properties": { "_id": 44136, "name": "THISTLETOWN COLLEGIATE INSTITUTE (STUDENT NUTRITION)", "type": "Student Nutrition Site", "address": "20 FORDWICH CRES" }, "geometry": { "type": "Point", "coordinates": [ -79.56246, 43.72774 ] } },
{ "type": "Feature", "properties": { "_id": 44178, "name": "THREE VALLEYS PUBLIC SCHOOL  - STUDENT NUTRITION PROGRAM", "type": "Student Nutrition Site", "address": "76 THREE VALLEYS DR, Rm-KITCHEN" }, "geometry": { "type": "Point", "coordinates": [ -79.33762, 43.75082 ] } },
{ "type": "Feature", "properties": { "_id": 45471, "name": "TOPCLIFF STUDENT NUTRITION CENTRE", "type": "Student Nutrition Site", "address": "65 TOPCLIFF AVE" }, "geometry": { "type": "Point", "coordinates": [ -79.51066, 43.75569 ] } },
{ "type": "Feature", "properties": { "_id": 46020, "name": "TWENTIETH STREET SCHOOL SNACK PROGRAM", "type": "Student Nutrition Site", "address": "3190 LAKE SHORE BLVD W" }, "geometry": { "type": "Point", "coordinates": [ -79.51994, 43.59799 ] } },
{ "type": "Feature", "properties": { "_id": 46224, "name": "The Elms Public School Snack Program", "type": "Student Nutrition Site", "address": "45 GOLFDOWN DR" }, "geometry": { "type": "Point", "coordinates": [ -79.55212, 43.72224 ] } },
{ "type": "Feature", "properties": { "_id": 46796, "name": "VALLEYFIELD JR. SCHOOL SNACK PROGRAM", "type": "Student Nutrition Site", "address": "35 SASKATOON DR" }, "geometry": { "type": "Point", "coordinates": [ -79.53822, 43.69422 ] } },
{ "type": "Feature", "properties": { "_id": 46974, "name": "VICTORIA PARK COLLEGIATE INSTITUTE - BREAKFAST CLUB", "type": "Student Nutrition Site", "address": "15 WALLINGFORD RD, Rm-121" }, "geometry": { "type": "Point", "coordinates": [ -79.32147, 43.75607 ] } },
{ "type": "Feature", "properties": { "_id": 47628, "name": "WEST END ALTERNATIVE SECONDARY SCHOOL SNP", "type": "Student Nutrition Site", "address": "777 BLOOR ST W" }, "geometry": { "type": "Point", "coordinates": [ -79.41984, 43.66244 ] } },
{ "type": "Feature", "properties": { "_id": 47636, "name": "WEST HILL COLLEGIATE - MORNING MEAL PROGRAM", "type": "Student Nutrition Site", "address": "350 MORNINGSIDE AVE" }, "geometry": { "type": "Point", "coordinates": [ -79.19059, 43.77568 ] } },
{ "type": "Feature", "properties": { "_id": 47690, "name": "WESTON COLLEGIATE INSTITUTE - STUDENT NUTRITION PROGRAM", "type": "Student Nutrition Site", "address": "100 PINE ST" }, "geometry": { "type": "Point", "coordinates": [ -79.50943, 43.70382 ] } },
{ "type": "Feature", "properties": { "_id": 47951, "name": "WILLIAM G. MILLER PS - SNP", "type": "Student Nutrition Site", "address": "60 BENNETT RD, Rm-STAFF ROOM" }, "geometry": { "type": "Point", "coordinates": [ -79.16542, 43.76853 ] } },
{ "type": "Feature", "properties": { "_id": 47967, "name": "WILLOW PARK JUNIOR SNACK PROGRAM", "type": "Student Nutrition Site", "address": "45 WINDOVER DR" }, "geometry": { "type": "Point", "coordinates": [ -79.20958, 43.76121 ] } },
{ "type": "Feature", "properties": { "_id": 48129, "name": "WOBURN JUNIOR P.S. SNACK PROGRAM", "type": "Student Nutrition Site", "address": "40 DORMINGTON DR" }, "geometry": { "type": "Point", "coordinates": [ -79.227, 43.7795 ] } },
{ "type": "Feature", "properties": { "_id": 48844, "name": "YORKWOODS P.S. SNACK PROGRAM", "type": "Student Nutrition Site", "address": "25 YORKWOODS GT" }, "geometry": { "type": "Point", "coordinates": [ -79.51389, 43.75067 ] } },
{ "type": "Feature", "properties": { "_id": 49322, "name": "Ã‰COLE SECONDAIRE TORONTO OUEST- SNP", "type": "Student Nutrition Site", "address": "330 LANSDOWNE AVE" }, "geometry": { "type": "Point", "coordinates": [ -79.44124, 43.65239 ] } }
]
}
